name,city_id,is_activated,category,latitude,longitude,province_id
Ada Medikal Diğer Tıbbi Malz Satışı,34,TRUE,1,41.139505,29.086857,432
Uzman Dental Ağız ve Diş Sağlığı Polikliniği,34,TRUE,2,41.035575,28.85385,426
Özel Moda Polikliniği,34,TRUE,3,40.984577,29.024374,444
Op. Dr. Ayça Çarak,34,TRUE,4,41.049313,28.996088,456
Özeller Saat Optik,34,TRUE,5,41.034132,28.680531,439
İntermed Nişantaşı Polikliniği,34,TRUE,3,41.051367,28.991553,456
Psk. Emine Sinem Derli,34,TRUE,6,41.053353,28.987579,456
Uzm. Dr. Tuğba Türe,34,TRUE,4,41.048585,28.994016,456
Bbc Dental,34,TRUE,2,41.049483,28.993387,456
Prof. Dr. Gediz Murat Serin,34,TRUE,4,41.049254,28.993492,456
Op. Dr. Hakkı H. İzmirli,34,TRUE,4,41.053173,28.989264,456
Uzm. Dr. Şuayip Sancaktar,34,TRUE,4,40.964622,29.277421,453
Diş Hekimi Emre Özbir,34,TRUE,7,41.076023,29.01999,431
Dr. Dt. Onur Utku Yüksel,34,TRUE,7,41.05341,28.987675,456
Ada Optik,34,TRUE,5,41.075777,28.882782,442
Erg. Rumeysa Sultan Sağlam,34,TRUE,4,41.058937,28.908469,442
Özel İstanbul Dental Center Ağız ve Diş Sağlığı Merkezi,34,TRUE,2,41.053504,28.987736,456
Semavi Optik,34,TRUE,5,41.011096,28.69921,439
Özel Fizyomed Polikliniği,34,TRUE,3,40.995613,28.646168,433
Berra Optik,34,TRUE,5,41.03936,29.078239,459
City Optik,34,TRUE,5,41.0126,28.645901,433
Diş Hekimi Sezer Yıldız,34,TRUE,7,41.079336,28.883952,442
Diş Hekimi Mehmet Keser,34,TRUE,7,41.041601,28.903794,430
Özge Medikal,34,TRUE,1,41.034463,28.897644,430
Diş Hekimi Ayfer Kargacı Güven,34,TRUE,7,41.044601,28.908236,430
Hüsmen Ayan,34,TRUE,7,41.059726,28.913479,442
Özel Enka Diş,34,TRUE,2,41.037765,28.912364,430
Lens Medikal,34,TRUE,1,41.03687,28.912055,430
Forma Medikal Market,34,TRUE,1,41.036871,28.897812,430
Diş Hekimi Filiz Balaban,34,TRUE,7,41.038474,28.907825,430
Diş Hekimi Zehra Kıvılcım,34,TRUE,7,41.045018,28.906204,430
İlker Optik,34,TRUE,5,41.039056,28.912228,430
Diş Hekimi Banu Aksoy,34,TRUE,7,41.038287,28.908093,430
Diyetisyen Rabia Üçeler,34,TRUE,8,41.035695,28.912756,430
Dr. Fedai Barcan,34,TRUE,4,41.034288,28.911855,430
Gülümse Psikolojik Danışmanlık Merkezi,34,TRUE,6,41.045553,28.908835,430
Özel Göz Nurunu Koruma Vakfı Bayrampaşa Göz Hastanesi,34,TRUE,9,41.039379,28.912239,430
Özel Bayrampaşa İlkdent Ağız ve Diş Sağlığı Polikliniği,34,TRUE,2,41.033893,28.90154,430
Özel Avrupa Akademi Ağız ve Diş Sağlığı Polikliniği,34,TRUE,2,41.033379,28.899326,430
Stil Gözlük,34,TRUE,5,41.015161,28.975161,441
Diş Hekimi İsmail Alioğlu,34,TRUE,7,41.045594,28.905223,430
Özel Bayrampaşa Ağız ve Diş Sağlığı Polikliniği,34,TRUE,2,41.035711,28.910227,430
Paşa Psikoteknik Değerlendirme Merkezi,34,TRUE,10,41.038309,28.912487,430
Cihan Optik,34,TRUE,5,41.036701,28.909717,430
Diş Hekimi Fehime Dedeoğlu - Mehmet Dedeoğlu,34,TRUE,7,41.0452,28.907321,430
Diş Hekimi Tugay Hüseyin,34,TRUE,7,41.035348,28.912962,430
Operatör Dr. Ebru Coşkun Kadın Hastalıkları ve Doğum Uzmanı,34,TRUE,4,41.073783,28.902351,442
Dr. İsmet Buşat,34,TRUE,4,41.037908,28.911759,430
Diş Hekimi Nevin Özey,34,TRUE,7,41.034289,28.911863,430
Beşyıldız Psikoteknik,34,TRUE,10,40.883695,29.23488,449
Diş Hekimi Bülent Kaplan,34,TRUE,7,41.04575,28.905425,430
İnan Optik,34,TRUE,5,41.039169,28.912227,430
Kalender Optik,34,TRUE,5,41.03536,28.910504,430
World Medikal,34,TRUE,1,41.031498,28.913341,460
Diş Hekimi Serdar Yalçın,34,TRUE,7,41.038482,28.912048,430
Si-Set İşitme Cihazları,34,TRUE,11,41.042337,28.904379,430
Dentekip,34,TRUE,7,41.04512,28.906388,430
Erdem Optik,34,TRUE,5,41.036807,28.909507,430
Gözlük Dünyası,34,TRUE,5,41.035594,28.913452,430
Akademi Optik,34,TRUE,5,41.036891,28.912062,430
Elie Optik,34,TRUE,5,41.032761,28.900724,430
Diş Hekimi Özcan Kılıç,34,TRUE,7,41.045152,28.906134,430
Gökay Medikal,34,TRUE,1,41.064912,28.820066,426
Diş Hekimi Nuri Taylan,34,TRUE,7,41.039057,28.90756,430
Else Optik,34,TRUE,5,41.045174,28.906001,430
Diş Hekimi Serpil Süral Çavdar,34,TRUE,7,41.036312,28.909797,430
Aktif Medikal,34,TRUE,1,41.042433,28.904014,430
Ercan Optik,34,TRUE,5,41.035387,28.91306,430
Gündem Optik,34,TRUE,5,41.039237,28.912226,430
Diş Hekimi Muzaffer ve F. Arzu Erdoğral,34,TRUE,7,41.044699,28.909448,430
Diş Hekimi,34,TRUE,7,41.042734,28.909317,430
Göz Vakfı Optik,34,TRUE,5,41.03921,28.912227,430
Özel Ertaş Diş Sağlığı Merkezi,34,TRUE,2,41.036522,28.912369,430
Özel Kaletürk Ağız ve Diş Sağlığı Merkezi,34,TRUE,2,41.041181,28.908135,430
Bay Optik,34,TRUE,5,41.042138,28.903748,430
Bay Optik,34,TRUE,5,41.039273,28.912226,430
Diş Hekimi Hakan Köse,34,TRUE,7,41.042242,28.904106,430
İpek Optik,34,TRUE,5,41.041757,28.903573,430
Mavi Göz Optik,34,TRUE,5,41.05906,28.913511,442
Diş Hekimi E. Safa Koçak,34,TRUE,7,41.039243,28.907312,430
Fark Optik,34,TRUE,5,41.038533,28.912001,430
Dentamir Ağız ve Diş Sağlığı Polikliniği,34,TRUE,2,41.051598,28.905703,430
Ferhat Medikal Ortopedi,34,TRUE,1,41.042263,28.904022,430
Gündem Optik,34,TRUE,5,41.035613,28.913549,430
Çınar Terkuran,34,TRUE,7,41.037273,28.905687,430
Diş Hekimi Sevgi Güneş,34,TRUE,7,41.03322,28.898078,430
Belkıs Şahin,34,TRUE,7,41.060606,28.913661,442
Özel Bayrampaşa Ağız ve Diş Sağlığı Polikliniği,34,TRUE,2,41.037345,28.912117,430
Diş Hekimi Mehmet Onbaşıoglu,34,TRUE,7,41.060616,28.913663,442
Helix İşitme Cihazları,34,TRUE,11,41.042246,28.903797,430
Bakırköy Özel 360 Ağız ve Diş Sağlığı Merkezi,34,TRUE,2,40.978694,28.874485,428
Özel Bayrampaşa Psikoteknik Değerlendirme Merkezi,34,TRUE,10,41.038388,28.895877,430
Meyra Medikal,34,TRUE,1,40.978557,28.873762,428
Diş Hekimi Ali Toncer,34,TRUE,7,41.045866,28.934404,440
Odyovest İşitme Cihazları,34,TRUE,11,41.036861,28.884047,438
Diş Hekimi Halil Dokuyucu,34,TRUE,7,40.979729,28.874365,428
Gözüm Optik,34,TRUE,5,40.978442,28.873844,428
Evren Profesyonel Gözlük Tamircisi,34,TRUE,5,40.978498,28.873786,428
Öztürk Medikal Ortopedi,34,TRUE,1,41.044167,28.904653,430
Dinç Optik 2,34,TRUE,5,40.997914,28.904334,460
İBB Psikolojik Danışmanlık Merkezi,34,TRUE,12,41.040045,28.909692,430
Kent Optik,34,TRUE,5,41.041982,28.903676,430
3 A Dental Klinik,34,TRUE,7,41.059022,28.913762,442
Bayrampaşa Devlet Hastanesi,34,TRUE,13,41.041463,28.903141,430
Özel Fizyodem Tıp Merkezi,34,TRUE,14,41.037068,28.90922,430
Göznur Optik,34,TRUE,5,41.035454,28.913375,430
New Mode Orta Doğu Medikal,34,TRUE,1,41.033647,28.916464,430
Müsekkin Terapi Fizyoterapi & Sağlıklı Yaşam Danışmanlık Merkezi,34,TRUE,4,41.03535,28.898196,430
Enesim Optik,34,TRUE,5,41.042462,28.903909,430
Meliha Hasanoğlu,34,TRUE,7,41.059736,28.913586,442
Vakıf Optik,34,TRUE,5,41.03909,28.912228,430
Diş Hekimi Fatma Ataç (Türkkan),34,TRUE,7,41.0459,28.905631,430
Diş Hekimi Alaattin Oral,34,TRUE,7,41.036318,28.913511,430
Medi World Tıp Merkezi,34,TRUE,14,41.037973,28.912395,430
Özel Aksa Ağız ve Diş Sağlığı Polikliniği,34,TRUE,2,41.000247,28.89817,460
Diş Hekimi Rüştü Can,34,TRUE,7,41.035683,28.884141,438
Gültekin Optik,34,TRUE,5,41.039613,28.882718,438
Özel Amethyst Çok Amaçlı Diş Protez Laboratuvarı,34,TRUE,15,41.054143,28.916114,440
Diş Hekimi Ali Gürlek,34,TRUE,7,41.042723,28.847799,426
Güngören Ağız ve Diş Sağlığı Merkezi Esenler Diş Polikliniği,34,TRUE,16,41.037506,28.87982,438
Dentagross Zeytinburnu,34,TRUE,2,41.01255,28.909923,460
Diş Hekimi Kezban Çiftçi,34,TRUE,7,41.038003,28.870979,426
Medikal ve Ortopedi Ürünleri,34,TRUE,1,40.984027,28.8961,460
Diyetisyen Ahmet Kaya,34,TRUE,8,40.979433,28.874408,428
Özel Plaza Diş,34,TRUE,2,41.002194,28.904209,460
Diş Hekimi Hasan Göktaş,34,TRUE,7,41.039516,28.869755,438
Tan Gözlük Sanayi,34,TRUE,5,41.065387,28.827036,426
Özel 3B Dent Ağız ve Diş Sağlığı Polikliniği,34,TRUE,2,41.004649,28.980052,441
Diş Hekimi Rıfat Yıldız,34,TRUE,7,41.004632,28.979801,441
Özel Avrasya Hastanesi,34,TRUE,17,41.003261,28.907044,460
Özel Güney Hastanesi,34,TRUE,17,41.04381,28.879521,438
Gözde Medikal,34,TRUE,1,41.039515,28.874279,438
Duha Optik,34,TRUE,5,41.01186,28.873287,443
Garanti Sağlık Merkezi,34,TRUE,14,40.980381,28.874543,428
Özel Zeytinburnu Ağız ve Diş Sağlığı Polikliniği,34,TRUE,2,40.998683,28.910776,460
Mora Optik,34,TRUE,5,41.01672,28.951507,441
Diş Hekimi İlyas Oğur,34,TRUE,7,40.995215,28.902289,460
Betül Şimşek Uzman Klinik Psikolog,34,TRUE,6,41.034766,28.866837,426
Diş Hekimi Rüstem Beyazay,34,TRUE,7,41.01368,28.87149,443
Diş Hekimi Serdar Güler,34,TRUE,7,41.038693,28.874901,438
Medikal Yedikule,34,TRUE,1,41.000679,28.915187,460
Diş Hekimi Bekir Duman,34,TRUE,7,41.039038,28.87638,438
Diş Hekimi Babek Zaman,34,TRUE,7,41.038633,28.873114,438
Şahmar Optik,34,TRUE,5,41.049184,28.921344,440
Yılmaz Optik,34,TRUE,5,40.993785,28.904344,460
Şener Optik,34,TRUE,5,41.011057,28.873916,443
Asır Psikoteknik Değerlendirme Merkezi,34,TRUE,10,40.994582,28.908648,460
Diş Hekimi Görkem Özbilen,34,TRUE,7,41.000284,28.894457,460
Özel Dişlife Ağız ve Diş Sağlığı Merkezi,34,TRUE,2,40.994362,28.910496,460
Ece Medikal,34,TRUE,1,40.997426,28.915289,460
Diş Hekimi Dr.Berkay Çelik,34,TRUE,7,40.995237,28.910941,460
Esenler Özel Sağlık Kabini,34,TRUE,18,41.036507,28.879225,438
Diş Hekimi Kumral Sarıkaya,34,TRUE,7,40.980646,28.875524,428
Diş Hekimi Beşir Tahiroğlu,34,TRUE,7,40.992906,28.903649,460
S.B.Ü.Bakırköy Prof. Dr. Mazhar Osman,34,TRUE,4,41.031663,28.87692,443
Ailem Dental Ağız ve Diş Sağlığı Polikliniği,34,TRUE,16,41.080141,28.964486,445
Deniz Optik,34,TRUE,5,41.024962,28.872807,443
Diş Hekimi Mustafa Güven,34,TRUE,7,41.033576,28.882836,438
Diş Hekimi Latif Karaoğlu,34,TRUE,7,41.004122,28.905472,460
Diş Hekimi,34,TRUE,7,41.038994,28.8755,438
Diş Hekimi Zekiye Güler,34,TRUE,7,41.04033,28.861837,438
Mustafa İsmailoğlu,34,TRUE,7,40.994946,28.902672,460
Medikal Tıbbi Cihazlar,34,TRUE,1,41.043903,28.878885,438
Diş Hekimi,34,TRUE,7,41.024794,28.872147,443
Akın Optik,34,TRUE,5,41.025854,28.871919,443
Diş Hekimi Sonay Öztan Gökhan,34,TRUE,7,41.024695,28.871859,443
Diş Hekimi Mümin Hacı Süleyman,34,TRUE,7,41.025205,28.872499,443
Esenler Özel Huzur Ağız ve Diş Sağlığı Merkezi,34,TRUE,2,41.042215,28.880578,438
İnci Sağlık Kabini,34,TRUE,18,40.985494,28.901771,460
Diş Hekimi Fatma Pektuncer,34,TRUE,7,41.032675,28.876453,438
Özel Mediksn Sağlık Kabini,34,TRUE,18,41.044666,28.869234,438
Dyt. Özge Demirbaş,34,TRUE,8,40.994247,28.904103,460
Gözde Optik,34,TRUE,5,41.011327,28.873707,443
Diş Hekimi Osman Genç,34,TRUE,7,40.994543,28.908729,460
Yeni Uğur Optik,34,TRUE,5,40.996696,28.915185,460
İbrahim Tan,34,TRUE,7,41.080752,28.963698,445
Sirkeci Aile Sağlığı Merkezi,34,TRUE,12,41.012241,28.977517,441
Lider Optik,34,TRUE,5,40.979485,28.87397,428
Burç Optik,34,TRUE,5,40.979578,28.873927,428
Öz Koçak Optik,34,TRUE,5,41.003482,28.906876,460
Uygur Zade Doğal Yaşam Merkezi,34,TRUE,19,40.985511,28.89819,460
Özel Bağcılar Ağız ve Diş Sağlığı Polikliniği,34,TRUE,2,41.034098,28.858422,426
Diş Hekimi Yusuf Gündoğdu,34,TRUE,7,41.050158,28.919141,440
Gören Optik,34,TRUE,5,41.023962,28.872016,443
Diş Hekimi Selim Özakar,34,TRUE,7,40.984579,28.895366,460
Dünya Dental,34,TRUE,15,41.013019,28.940068,441
Tolga Dental,34,TRUE,15,41.013084,28.940106,441
Özel Şifa Sağlık Kabini,34,TRUE,18,41.077928,28.961735,445
Endostall,34,TRUE,1,41.012366,28.940148,441
Ssca Medikal,34,TRUE,1,41.012229,28.940396,441
Saray Optik,34,TRUE,5,41.010863,28.953642,441
Özel Yeşiltepe Polikliniği,34,TRUE,2,40.994665,28.902629,460
Tillo Optik,34,TRUE,5,41.015666,28.952308,441
Fatih Topçu Diş Deposu,34,TRUE,1,41.013788,28.940018,441
Çıkıkçı Salih,34,TRUE,19,41.00236,28.910995,460
Op.Dr. Umut Suadiye Estetik & Plastik Cerrahi,34,TRUE,4,40.978596,28.873796,428
Öztürk Optik,34,TRUE,5,40.978828,28.874209,428
Diş Hekimi Nizamettin Yıldız,34,TRUE,7,41.038652,28.873264,438
Diş Hekimi Gönül Yıldız,34,TRUE,7,41.012834,28.872154,443
Rois Time,34,TRUE,5,41.0163,28.96923,441
Dent Akdeniz Şifa Ağız ve Diş Sağlığı Polikliniği,34,TRUE,2,41.018848,28.945767,441
Diş Hekimi Halil Gürsel Ayşit,34,TRUE,7,41.014996,28.944367,441
Özel Delfin İşitme Cihazları ve Uygulama Merkezi,34,TRUE,11,41.013317,28.940888,441
Özel Dayıoğlu Diş Polikliniği,34,TRUE,2,40.990347,29.024403,444
Diş Hekimi Hakan Ertan,34,TRUE,7,41.003501,28.9262,441
Park Optik,34,TRUE,5,40.990224,29.023877,444
Diamond Gözlük,34,TRUE,5,41.016621,28.968301,441
Dr. Rahmi Yaşar Yaşat,34,TRUE,4,41.012302,28.941751,441
Güç İthalat Gözlük,34,TRUE,5,41.016786,28.968186,441
Diş Hekimi Mehmet Tülek,34,TRUE,7,41.015776,28.944095,441
World Smile,34,TRUE,2,41.018884,28.945843,441
Kouche Dent,34,TRUE,2,41.013501,28.940501,441
Kaynak Medikal,34,TRUE,1,41.01613,28.968749,441
Diş Hekimi Dr. Omar Akeed,34,TRUE,7,41.018339,28.945324,441
Sonus Dil Konuşma ve Gelişim Merkezi,34,TRUE,19,41.006643,28.939492,441
Diş Hekimi Murat Özturan,34,TRUE,7,41.009035,28.937187,441
Dt.Murat Sözmen,34,TRUE,7,40.994366,28.903884,460
Süvari Optik,34,TRUE,5,41.070817,28.80977,429
Vasos Gözlük,34,TRUE,5,41.016624,28.968139,441
Bereket Ağız ve Diş Sağlığı,34,TRUE,2,41.014839,28.93995,441
Mehmet Özcan Diş Hekimi,34,TRUE,7,41.016414,28.950245,441
Hantaş Gözlük,34,TRUE,5,41.016169,28.969413,441
Medikalci,34,TRUE,1,41.032405,28.947414,441
Şeyda Ersoy Diş Hekimi,34,TRUE,7,41.017682,28.876621,443
Özel Eliz Ağız ve Diş Sağlığı Polikliniği,34,TRUE,2,41.016158,28.930547,441
Özel Çapa Ortodonti Ağız ve Diş Sağlığı Polikliniği,34,TRUE,2,41.014381,28.931984,441
Ardil Optik,34,TRUE,5,41.016468,28.969198,441
Diş Hekimi Erhan Gürsoy,34,TRUE,7,41.021739,28.878685,443
Diyetisyen Işıl Manav,34,TRUE,8,40.978775,28.874481,428
Hedef Medikal,34,TRUE,1,41.00956,28.936629,441
Levent Optik,34,TRUE,5,41.019385,28.940127,441
Selis Dental,34,TRUE,7,41.011059,28.94137,441
Paşa Sağlık Kabini,34,TRUE,18,41.007363,28.942011,441
Mustafa Dinçeler Diş Hekimi,34,TRUE,7,41.018351,28.942213,441
Uzman Diş Hekimi,34,TRUE,7,41.012455,28.940924,441
Dora Dental,34,TRUE,2,41.013647,28.93816,441
Necla Özkandemir Diş Hekimi,34,TRUE,7,41.023811,28.94743,441
Frame Teknik Cihazlar,34,TRUE,1,41.014585,28.93844,441
Saray Optik,34,TRUE,5,41.015904,28.929823,441
Prof. Dr. Musa Torun,34,TRUE,4,41.01963,28.946966,441
Adt Dental,34,TRUE,2,41.014132,28.938265,441
Atasun Optik,34,TRUE,5,40.99096,29.024215,444
İnter Optik,34,TRUE,5,40.992569,29.029692,444
Atasun Optik,34,TRUE,5,40.991505,29.028372,444
Özel Estetik Med,34,TRUE,3,41.015974,28.943692,441
Şaşmaz Optik,34,TRUE,5,40.991537,29.028635,444
Öztürk Optik,34,TRUE,5,41.019618,28.947125,441
Gözlükçü,34,TRUE,5,41.033507,28.946294,441
Caner Gür Diş Hekimi,34,TRUE,7,40.989578,29.023865,444
Taşçılar Optik,34,TRUE,5,40.990869,29.024416,444
Salih Bozkurt Optik,34,TRUE,5,41.013766,28.970299,441
Uzunoğlu Özel Sağlık Hizmetleri,34,TRUE,14,40.993028,29.03021,444
Op. Dr. Berrin Asker,34,TRUE,4,41.013299,28.931895,441
Diş Hekimi Osman Bektay,34,TRUE,7,41.015425,28.929246,441
Özel Onur Ağız ve Diş Sağlığı Polikliniği,34,TRUE,2,41.01899,28.952974,441
Diş Hekimi Orhan Öcal,34,TRUE,7,41.012846,28.941571,441
Diş Hekimi Kemaleddin Muhsin Karaağaç,34,TRUE,7,41.018304,28.948118,441
Seyahat Sağlığı Merkezi,34,TRUE,19,41.022053,28.976799,434
Dmr Medikal,34,TRUE,1,41.014197,28.932075,441
Dopa Dış Ticaret,34,TRUE,15,41.01044,28.93682,441
Diş Hekimi Türkan Ataman,34,TRUE,7,41.017615,28.944076,441
Uzm. Dr. Nurdan Keskin,34,TRUE,4,41.013229,28.940837,441
Gül Medikal,34,TRUE,1,41.012698,28.940997,441
Asri Diş Deposu,34,TRUE,1,41.014415,28.938249,441
Boğaziçi Diş Deposu,34,TRUE,1,41.013355,28.941172,441
Mtk Diş Deposu,34,TRUE,1,41.01386,28.938765,441
Es As Diş Deposu,34,TRUE,1,41.01361,28.939159,441
Mega Diş Deposu,34,TRUE,1,41.013803,28.940378,441
Op. Dr. Emel Güler,34,TRUE,4,41.049325,29.025093,431
Diş Hekimi Esmeray İmanova,34,TRUE,7,41.010991,28.941057,441
Yeşim Optik,34,TRUE,5,41.003795,28.927903,441
Kolaylık Medikal,34,TRUE,1,41.014687,28.93282,441
Özel Opak Ağız ve Diş Sağlığı Merkezi,34,TRUE,2,41.01683,28.94315,441
Reform Optik,34,TRUE,5,41.0067,28.934454,441
Diş Hekimi Abdullah Özkaraoğlu,34,TRUE,7,41.014217,28.930412,441
Er Medikal,34,TRUE,1,41.016031,28.969354,441
Uzman Diyetisyen Fatma Karahasanoğlu,34,TRUE,8,41.023803,28.947406,441
Diş Hekimi Hatice Bilen,34,TRUE,7,41.003201,28.9258,441
Ortaköy Optik,34,TRUE,5,41.053477,29.023328,431
Zeta Dental Diş Laboratuvarı,34,TRUE,15,41.033032,28.858849,426
Prof. Dr. Nermin Güler Çocuk Sağlığı ve Hastalıkları Uzmanı,34,TRUE,4,41.011445,28.953655,441
İstanbul Psikoloji,34,TRUE,6,41.017034,28.949411,441
Diş Hekimi Nasrettin Üvet,34,TRUE,7,41.049897,29.025506,431
Garanti Diş Laboratuvarı,34,TRUE,15,41.020507,28.960219,441
Diş Hekimi Güneş Salih Yavuzcan,34,TRUE,7,41.007354,28.953792,441
Diş Hekimi Sevgi Tomruk Akbaba,34,TRUE,7,41.006912,28.952418,441
Atlas Optik,34,TRUE,5,40.997791,29.033061,444
Akupunktur Dr. Ali Özden Öztürk,34,TRUE,4,41.00638,29.033946,444
Diş Hekimi Emcet Salih,34,TRUE,7,41.09494,28.907458,454
Medikal Ortopedi,34,TRUE,1,41.002543,29.028505,444
Mim Optik,34,TRUE,5,41.044467,28.879593,438
Felipe Medikal,34,TRUE,1,41.021037,28.589015,435
Diş Hekimi Dt. M. Denizhan Uzunpınar,34,TRUE,7,41.011823,29.038478,444
Özel Dentart Ağız ve Diş Sağlığı Polikliniği,34,TRUE,2,41.009214,29.037136,444
Öz Numune Optik,34,TRUE,5,41.003117,29.02807,444
Uzm. Psikolog Eylem Ceyhan,34,TRUE,6,41.052526,29.023928,431
Diş Hekimi Tansel Tolan,34,TRUE,7,41.05107,29.024537,431
Diş Hekimi Suat Çolak,34,TRUE,7,41.076823,28.882662,442
Nehir Optik,34,TRUE,5,41.077566,28.889386,442
Özel Büyükçekmece Ağız ve Diş Sağlığı Polikliniği,34,TRUE,2,41.019738,28.593056,435
Duramed Sağlık Hizmetleri,34,TRUE,1,41.020219,29.032504,459
Dental İmplant Clinic,34,TRUE,2,41.145485,28.459176,436
Yeditepe Üniversitesi Koşuyolu Hastanesi,34,TRUE,21,41.004167,29.031112,444
Diş Hekimi Can Sönmez,34,TRUE,7,41.008977,28.965607,441
Özel Medi Time Cerrahi Tıp Merkezi,34,TRUE,14,40.986799,29.171436,424
Diş Hekimi Dr. Dt. Pelin Gökalp Kalabay,34,TRUE,7,40.986241,29.174005,424
Diş Hekimi Filiz Yıldız,34,TRUE,7,41.028546,29.224291,437
Özel Mimaroba Sağlık Kabini,34,TRUE,18,41.002651,28.534284,435
Yaren Sağlıklı Yaşam ve Kilo Kontrol Merkezi,34,TRUE,19,41.100467,28.878081,454
Odyobest İşitme Cihazları,34,TRUE,11,41.065783,28.971906,445
Diş Hekimi N.Gülşen Çolak,34,TRUE,7,41.028536,29.224284,437
Özel Dent Pozitif Ağız ve Diş Sağlığı Polikinliği,34,TRUE,2,41.01612,28.655648,439
Psikolojik Danışmanlık Merkezi,34,TRUE,6,40.983583,28.637457,433
Ada Optik,34,TRUE,5,41.002717,28.531991,435
Diş Hekimi Tuba Dağ,34,TRUE,7,41.019567,28.66496,439
İlgi Sağlık Kabini,34,TRUE,18,40.980684,28.63952,433
Medikal Murat,34,TRUE,1,41.066797,28.974399,445
Çınar Medikal,34,TRUE,1,41.066245,28.972833,445
By Avşar Optik,34,TRUE,5,41.066178,28.972603,445
Okmeydanı Eğitim ve Araştırma Hastanesi Gülbahar Semt Polikinliği,34,TRUE,22,41.076287,28.996056,456
Bay Ziya Optik,34,TRUE,5,41.068562,28.974145,445
Menaz Sağlık,34,TRUE,1,41.039195,28.680996,439
İnci Park Ağız ve Diş Sağlığı Polikinliği,34,TRUE,2,41.009964,28.668678,439
Nur Optik,34,TRUE,5,41.075773,28.882326,442
Özel Taşlıtepe Diş Polikliniği,34,TRUE,2,41.075692,28.74986,429
Nil Optik,34,TRUE,5,41.058831,28.930955,442
Uzman Sağlık Kabini,34,TRUE,18,41.077346,28.750667,429
Güvercintepe Sağlık Kabini,34,TRUE,18,41.084014,28.751176,429
Ada Optik,34,TRUE,5,41.0486,28.859986,438
Diş Hekimi Yusuf Kılınç,34,TRUE,7,41.047945,28.860153,438
Diş Hekimi Şafak Tezcan,34,TRUE,7,40.986899,29.035881,444
Sağlık Kabini,34,TRUE,18,40.985812,29.024517,444
Solarıs,34,TRUE,5,41.052975,28.989658,456
Çağrı İşitme Cihazları,34,TRUE,11,40.990073,29.028616,444
Diş Hekimi Fatma Türel,34,TRUE,7,41.073612,28.980679,445
Çağlayan Optik,34,TRUE,5,41.072782,28.980256,445
Op. Dr. Mehmet Halit Işıklar,34,TRUE,4,41.053771,28.995639,456
Diş Hekimi Ayhan Deniz,34,TRUE,7,41.072822,28.980267,445
Diş Hekimi Rıdvan Taşlıtepe,34,TRUE,7,41.077405,28.750669,429
Özel Klinik No.2 Ağız ve Diş Sağlığı Polikliniği,34,TRUE,2,41.038307,28.858886,426
Fatih Perde,34,TRUE,1,41.045126,28.859726,426
Yeni Moda Optik,34,TRUE,5,40.985377,29.037547,444
Özel Sağlık Kabini,34,TRUE,18,41.07842,28.980763,445
Odak Optik,34,TRUE,5,41.051623,28.991659,456
Özel Çağlayan Sağlık Kabini,34,TRUE,18,41.07421,28.981544,445
Levent Medikal,34,TRUE,1,41.080333,29.006683,445
Özel 32 Diş Ağız ve Diş Sağlığı Polikliniği,34,TRUE,2,41.081804,28.918807,440
Dr. Şeyhmus Aydın,34,TRUE,4,40.976286,29.041321,444
Doğal Sağlık Hizmetleri,34,TRUE,19,40.975483,29.041058,444
Diş Hekimi Refet Özoruç,34,TRUE,7,40.974408,29.044016,444
Prof. Dr. Semih Takka,34,TRUE,4,40.982151,29.037453,444
Diyetisyen Gizem Eti,34,TRUE,8,40.980582,28.708716,425
Özel Şifa Kadın Doğum Merkezi,34,TRUE,17,41.082065,28.918082,440
Dr. Tahsin İncemehmet,34,TRUE,4,41.082146,28.918045,440
Fsm Tıp Merkezi,34,TRUE,14,41.032501,29.177372,437
Özel Afsdent Ağız ve Diş Sağlığı Polikliniği,34,TRUE,2,41.031207,29.17244,437
May İşitme Cihazları,34,TRUE,11,40.982526,28.721453,425
Özel Nirvana Dent Ağız ve Diş Sağlığı Polikliniği,34,TRUE,2,40.981182,28.720804,425
Diş Hekimi Şirin Mutlu,34,TRUE,7,40.979974,28.72242,425
Uzman Diyetisyen Gizem Yaman,34,TRUE,8,40.980171,28.719539,425
Özel Medicana Hospital Hastanesi Avcılar,34,TRUE,17,40.981136,28.721046,425
Poylin Medikal,34,TRUE,1,40.980379,28.730419,425
Özel Ets Psikoteknik,34,TRUE,10,41.008362,29.224139,450
Ortopedium,34,TRUE,1,41.061619,28.987069,456
Diş Hekimi Meral Erbaş,34,TRUE,7,40.985489,29.048488,444
Medistanbul Hastanesi,34,TRUE,17,41.179555,28.88416,440
Özel Dentacom Ağız ve Diş Sağlığı Polikliniği,34,TRUE,2,41.0725,29.0273,431
Özel Etiler Sistem Ağız ve Diş Sağlığı Polikliniği,34,TRUE,2,41.079101,29.0257,431
Özel My Zekeriyaköy Ağız ve Diş Sağlığı Polikliniği,34,TRUE,2,41.2056,29.021901,451
Özel Dentvizyon Ağız ve Diş Sağlığı Polikliniği,34,TRUE,2,41.211,29.0367,451
Özel Clinic Ağız ve Diş Sağlığı Polikliniği,34,TRUE,2,41.085506,29.009533,431
Bağcılar Özel Dentaworld Ağız ve Diş Sağlığı Polikliniği,34,TRUE,2,41.0296,28.869401,426
Özel Hd Dental İskenderun Ağız ve Diş Sağlığı Polikliniği,34,TRUE,2,40.9657,29.103001,444
Özel Cennet Ağız ve Diş Sağlığı Polikliniği,34,TRUE,2,40.9923,28.779,447
Panorama Ağız ve Diş Sağlığı Polikliniği,34,TRUE,2,40.9836,28.8682,428
Natürel Ağız ve Diş Sağlığı Polikliniği,34,TRUE,2,41.036001,28.790901,447
Mega Ağız ve Diş Sağlığı Polikliniği,34,TRUE,2,41.048501,28.931301,440
Özel Pendent Ağız ve Diş Sağlığı Polikliniği,34,TRUE,2,40.8795,29.2375,449
Özel Aydın Ağız ve Diş Sağlığı Polikliniği,34,TRUE,2,41.0576,28.676801,439
Özel Batu Ağız ve Diş Sağlığı Polikliniği,34,TRUE,2,41.0138,28.8638,443
Özel Dentanis Ağız ve Diş Sağlığı Polikliniği,34,TRUE,2,40.994101,29.1391,424
Dentaworld Ağız ve Diş Sağlığı Polikliniği,34,TRUE,2,40.983245,28.794411,428
Op. Dr. Erdem Aksoy,34,TRUE,4,41.072246,29.029098,431
Özel Dentalform İstanbul Ağız ve Diş Sağlığı Polikliniği,34,TRUE,2,41.055273,28.998706,456
Özel Pendik Şifa Ağız ve Diş Sağlığı Merkezi,34,TRUE,2,40.8826,29.236301,449
Özel Medıstate Kavacık Hastanesi,34,TRUE,17,41.094185,29.101374,432
Doç. Dr. Berke Özücer,34,TRUE,4,41.049692,28.99038,456
Diş Hekimi Kamuran Sarp,34,TRUE,7,41.043595,29.003449,431
Diş Hekimi Ede Azizağaoğlu,34,TRUE,7,41.059514,28.98703,456
Tuzla Belediyesi Sağlık İşleri Müdürlüğü Toplum Sağlığı Bölümü,34,TRUE,12,40.83243,29.316702,457
Özel Atadent Ağız ve Diş Sağlığı Polikliniği,34,TRUE,2,40.981,28.8636,428
Özel Diş İstanbul Ağız ve Diş Sağlığı Polikliniği,34,TRUE,2,41.10365,28.808373,429
Uzm. Dr. Azime Belül,34,TRUE,4,41.049734,28.990344,456
Sapio Life Uyku Solunum Cihazları,34,TRUE,1,41.0145,28.934344,441
Gazi Sağlık Kabini,34,TRUE,18,41.073597,28.896083,442
Dr. Esra Çelik Şenel,34,TRUE,4,41.051477,28.991823,456
Nazar Optik,34,TRUE,5,41.057899,28.918165,442
Şehir Optik,34,TRUE,5,41.074599,28.751977,429
Özel Doğa Hospital Hastanesi,34,TRUE,17,41.012797,28.696504,439
Modern Park Optik,34,TRUE,5,41.059471,28.906913,442
Işıl Ağız ve Diş Sağlığı Polikliniği,34,TRUE,7,41.076693,28.901,442
Prof. Dr. Tamer Koldaş,34,TRUE,4,41.052719,28.989971,456
Can Optik,34,TRUE,5,41.012735,28.695825,439
Diş Hekimi Tolga Şen,34,TRUE,7,41.073794,28.902342,442
Diş Hekimi Şeniz Üstündağ,34,TRUE,7,41.058259,28.914287,442
Özel Denista Ağız ve Diş Sağlığı Polikliniği,34,TRUE,2,41.05784,28.920281,442
İBB Evde Sağlık Hizmetleri Kartal,34,TRUE,12,40.91501,29.187899,446
Özel Atamer Ağız ve Diş Sağlığı Polikliniği,34,TRUE,7,40.874115,29.324348,457
Diş Hekimi Sabit Demircan,34,TRUE,7,41.048641,28.994255,456
Özel Simge Tıp Merkezi,34,TRUE,3,41.080945,28.881914,442
Özel Ab Diş Ağız ve Diş Sağlığı Polikliniği,34,TRUE,2,41.057862,28.922329,442
Diş Hekimi Koray Saadettinoğlu,34,TRUE,7,41.05826,28.914307,442
Diş Hekimi İsmail Kaya,34,TRUE,7,41.074076,28.750721,429
Op. Dr. Mücteba Gündüz,34,TRUE,4,41.053682,28.995744,456
Tt Medikal,34,TRUE,1,41.053368,28.994675,456
Altın Optik,34,TRUE,5,41.074164,28.751943,429
Özel Udc Ağız ve Diş Sağlığı Polikliniği,34,TRUE,2,41.051125,28.992256,456
Silivri Toplum Sağlığı Merkezi Seymen Sağlık Evi,34,TRUE,23,41.156494,28.17105,452
Özel Dental Clincia Ağız Diş Sağlığı Merkezi,34,TRUE,2,41.062345,28.682653,439
Özel Dentalıs Ağız ve Diş Sağlığı Polikliniği,34,TRUE,2,41.057294,29.010494,431
Öz Marmara Ağız Diş Sağlığı Polikliniği,34,TRUE,7,41.006168,28.797528,447
Özel Güven Ağız ve Diş Sağlığı Polikliniği,34,TRUE,2,41.061601,28.8631,438
Cliniqua,34,TRUE,2,41.073273,29.028599,431
Özel Batı Ortodonti ve Pedodonti Ağız ve Diş Sağlığı Merkezi,34,TRUE,2,41.015102,28.650601,439
Özel Kocaeli Ağız ve Diş Polikliniği,34,TRUE,2,40.982801,28.8737,428
Özel Yeni Hayat Diş Ağız ve Diş Sağlığı Polikliniği,34,TRUE,2,41.035701,28.6575,439
Pedident Ağız ve Diş Sağlığı Polikliniği,34,TRUE,2,41.0908,29.022401,431
Özel Dentalkoza Ağız ve Diş Sağlığı Polikliniği,34,TRUE,2,40.81819,29.306247,457
Özel Denthall Ağız ve Diş Sağlığı Polikliniği,34,TRUE,2,41.039285,28.796436,447
Özel Metrodentist Ağız ve Diş Sağlığı Polikliniği,34,TRUE,2,41.036601,28.8882,438
Özel Medent Ağız ve Diş Sağlığı Polikliniği,34,TRUE,2,40.9784,29.091501,444
Özel Başak Beyaz Işık Ağız ve Diş Sağlığı Polikliniği,34,TRUE,2,41.102543,28.787437,429
Özel Zirkondent Ağız ve Diş Sağlığı Polikliniği,34,TRUE,2,41.048405,28.801234,447
Özel Uçar Ağız ve Diş Sağlığı Polikliniği,34,TRUE,2,41.0143,28.8565,427
Özel Dent Modern Ağız ve Diş Sağlığı Polikliniği,34,TRUE,2,40.992652,29.12265,424
Özel Pentadent Ağız ve Diş Sağlığı Polikliniği,34,TRUE,2,40.9997,29.0384,444
Özel Dental Point Ağız ve Diş Sağlığı Polikliniği,34,TRUE,2,41.032101,28.8433,426
Zeyenebiye Ağız ve Diş Sağlığı Polikliniği,34,TRUE,2,41.035946,28.7907,447
Pendik Özel Denta Klinik Ağız ve Diş Sağlığı Merkezi,34,TRUE,2,40.8787,29.238401,449
Dentinn Ağız ve Diş Sağlığı Polikliniği,34,TRUE,2,41.0806,29.0356,431
Özel Beyaz Çizgi Ağız ve Diş Sağlığı Polikliniği,34,TRUE,2,41.006601,28.931401,441
Zafer Birinci Ağız ve Diş Sağlığı Polikliniği,34,TRUE,2,41.05148,28.796653,447
Metabolik Balance Dr.Semra Özgür,34,TRUE,4,41.07439,29.02811,431
Dr. Uğur Şahin Estetik ve Plastik Cerrahi Uzmanı,34,TRUE,4,40.966557,29.069599,444
Opr. Dr. Ahmet Payaşlı,34,TRUE,4,40.963676,29.073689,444
Sbs Tıbbi Cihazlar,34,TRUE,1,40.875301,29.31553,457
Diş Hekimi Hayrettin Azizagaoğlu,34,TRUE,7,41.059492,28.987034,456
Özel Dentan Ağız ve Diş Sağlığı Polikliniği,34,TRUE,2,41.055489,28.998251,456
Özel Dentshine Ağız ve Diş Sağlığı Merkezi,34,TRUE,2,41.1868,29.041501,451
Şükran Optik,34,TRUE,5,41.006329,28.79768,447
Özel Ataman Ağız ve Diş Sağlığı Polikliniği,34,TRUE,2,41.045577,28.934037,440
Özel Ağzına Sağlığı Ağız ve Diş Sağlığı Polikliniği,34,TRUE,2,41.082901,29.0176,431
Dr. Pınar Koç,34,TRUE,4,40.963818,29.073712,444
Engin Aksoy Dental Clinic,34,TRUE,7,41.042401,28.9966,431
Diş Hekimi,34,TRUE,7,41.044272,29.003396,431
Desibel Optik,34,TRUE,5,41.021871,28.580293,435
Zeytinburnu Tıp Merkezi,34,TRUE,14,40.988445,28.904179,460
Özel Dentalpark Ağız ve Diş Sağlığı Polikliniği,34,TRUE,2,41.017,29.0905,458
Diş Hekimi İrem Güler,34,TRUE,7,41.0557,28.908401,430
Dent İstanbul Diş Hastanesi,34,TRUE,2,41.0511,29.0079,431
Özel Dentbakırköy Ağız ve Diş Sağlığı Polikliniği,34,TRUE,2,40.978623,28.868892,428
Özel Dentgroup Ağız ve Diş Sağlığı Polikliniği,34,TRUE,2,41.110852,29.131892,432
Op. Dr. Mehmet Okuducu,34,TRUE,4,40.959664,29.081088,444
Dr. Cavit Aydın,34,TRUE,7,41.097344,28.862947,454
Diş Hekimi Cem Karaman,34,TRUE,7,40.985801,29.22944,450
Diş Hekimi Ebru Aydın,34,TRUE,7,41.0556,28.903701,430
Zion Psikiyatri,34,TRUE,6,41.050016,28.990639,456
Özel Vip Mydent Estetik Diş Hekimliği,34,TRUE,2,41.055528,28.998381,456
Dentistküdar Ağız ve Diş Sağlığı Polikliniği,34,TRUE,2,41.0233,29.0775,459
Dentsply Sirona The Dental Solutions Company,34,TRUE,2,40.987314,29.098708,424
Özel Umut Şimşek Ağız ve Diş Sağlığı Polikliniği,34,TRUE,2,40.984097,28.795607,428
Özel Dentaataşehir 2 Ağız ve Diş Sağlığı Polikliniği,34,TRUE,2,40.992304,29.1252,424
Diş Hekimi Nesrin ve Hikmet Tiralı,34,TRUE,7,41.037599,28.987804,434
Özel Cenk Teker Tıp Merkezi,34,TRUE,14,41.078742,28.256037,452
Dr. Demet Başdemir Çocuk Sağlığı ve Hastalıkları,34,TRUE,4,40.966465,29.073577,444
Özel Dentataşehir Ağız ve Diş Sağlığı Polikliniği,34,TRUE,2,40.992786,29.1244,424
Sancaktepe Gürkan Spor Klübü,34,TRUE,8,40.988227,29.232056,450
Özel Diş Adresim Ağız ve Diş Sağlığı Polikliniği,34,TRUE,2,40.899901,29.184639,446
Özel Denta Vie Ağız ve Diş Sağlığı Merkezi,34,TRUE,2,41.032049,28.657842,439
Özel Modern Klinik Ağız ve Diş Sağlığı Polikliniği,34,TRUE,2,40.980625,28.731653,425
Serap Tolaz Diyetisyen,34,TRUE,8,41.04938,28.990977,456
Uzm. Dr. Nezih Karaca,34,TRUE,4,41.049279,28.990978,456
Özel Dent Elit Ağız ve Diş Sağlığı Polikliniği,34,TRUE,2,40.9745,29.0581,444
Klinilk,34,TRUE,3,41.072586,29.028828,431
Özel Ekodental Ağız ve Diş Sağlığı Merkezi,34,TRUE,2,41.081401,29.018001,431
Özel Demir Kazıkağız ve Diş Sağlığı Polikliniği,34,TRUE,2,41.005718,29.11859,458
Florya Familydent Ağız ve Diş Sağlığı Merkezi,34,TRUE,2,40.972801,28.8028,428
Ağız ve Diş Sağlığı Polikliniği,34,TRUE,2,40.826954,29.355608,457
Özel Başakdent Ağız ve Diş Sağlığı Polikliniği,34,TRUE,2,41.09743,28.805322,429
Özel Estediş Ağız ve Diş Sağlığı Polikliniği,34,TRUE,2,41.098067,28.791172,429
Uzm. Dr. Allegra Motro,34,TRUE,4,41.059742,29.023249,431
Uzm. Dr. Yasemin Çerezci,34,TRUE,4,41.096394,28.907292,454
Uzm. Kl. Psk. Aydan Ayrık,34,TRUE,6,40.990017,29.126604,424
Psk. Melis Tiftikçi,34,TRUE,6,40.987969,29.042687,444
Psk. Sevgi Büker Terzioğlu,34,TRUE,6,40.987619,28.848532,428
Op. Dr. Sıtkı Kuşkaya,34,TRUE,4,41.029792,29.176572,437
Uzm. Psk. Dan. Tunç Tataker,34,TRUE,6,40.949326,29.100806,448
Doç. Dr. Salih Aydın,34,TRUE,4,41.019071,28.910976,460
Uzm. Dr. Emel Polat,34,TRUE,4,41.041774,28.982438,456
Uzm. Dkt. Yasemin Tekin,34,TRUE,4,40.843063,29.299346,457
Dr. Mehmet Faruk Yavuz,34,TRUE,4,41.070236,29.014201,456
Uzm. Psk. Ayşe Yiğit,34,TRUE,6,40.961537,29.091059,444
Op. Dr. Ahmet Murat Emanetoğlu,34,TRUE,4,41.009441,29.041318,444
Psk. Nurbanu Daimagüler,34,TRUE,6,40.999226,28.873106,427
Uzm. Dr. Gülbin Çiftçi,34,TRUE,4,41.011872,28.662939,439
Prof. Dr. Ege Özgentaş,34,TRUE,4,41.083084,29.013348,431
Psk. Nihan Yuğaç Doğan,34,TRUE,6,40.964493,29.070837,444
Uzm. Kl. Psk. Merve Özmeral,34,TRUE,6,41.004245,28.639706,433
Psk. Merve Saraçoğlu,34,TRUE,6,41.064849,29.011787,456
Dr. Yasemin Savaş,34,TRUE,4,41.00565,29.085841,424
Uzm. Psk. Yasemin Görkem Aydoğdu,34,TRUE,6,40.986721,29.110662,424
Op. Dr. Ayşe Deniz Şimşir,34,TRUE,4,40.967503,29.057734,444
Prof. Dr. Berrin Pehlivan,34,TRUE,4,41.078946,29.019883,431
Uzm. Dr. Yeşim Ruhat Karahan Kutlu,34,TRUE,4,41.054459,28.995036,456
Doç. Dr. Oya Ersoy Yücel,34,TRUE,4,40.898972,29.213549,446
Psk. Senem Konya Yılmaz,34,TRUE,6,40.97924,29.046363,444
Prof. Dr. İbrahim Gökhan Gülkılık,34,TRUE,4,41.065579,28.998253,456
Op. Dr. Mehmet Akay,34,TRUE,4,40.986711,28.658001,433
Doç. Dr. Orhan Çelen,34,TRUE,4,41.070374,29.019929,431
Uzm. Dr. Leyla Ertenü Aydın,34,TRUE,4,40.981095,29.067181,444
Dkt. Aleyna Tekin,34,TRUE,4,40.825272,29.311446,457
Uzm. Dkt. Mehmet Uyar,34,TRUE,4,40.873689,29.260725,449
Dr. Öğr. Üyesi Sertan Özdemir,34,TRUE,4,41.090733,29.092669,432
Dr. İnci Şen,34,TRUE,4,41.098722,29.067248,432
Doç. Dr. Ersin Nuzumlalı,34,TRUE,4,40.993855,28.91585,460
Fzt. İlayda Candan Aşkar,34,TRUE,4,40.952862,29.097903,448
Fzt. Buse Hazal Akçay Özyurt,34,TRUE,4,41.074891,29.021176,431
Op. Dr. Fatih Kırar,34,TRUE,4,41.058365,28.999959,456
Dkt. Işıl Özdemir Görgü,34,TRUE,4,40.985852,29.123297,424
Uzm. Dr. Sertaç Güven,34,TRUE,4,40.98803,28.846768,428
Op. Dr. Musa Kazım Sarı,34,TRUE,4,41.047969,29.025346,431
Op. Dr. Said Algan,34,TRUE,4,41.079895,29.01488,431
Op. Dr. Buse Çapkınoğlu,34,TRUE,4,41.046232,28.993958,456
Prof. Dr. Ahmet Rahmi Onur,34,TRUE,4,41.082703,29.015305,431
Op. Dr. Fatma Tulunoğlu,34,TRUE,4,41.062516,28.688107,429
Dr. Öğr. Üyesi Muzaffer Uçarer,34,TRUE,4,41.056237,28.672005,439
Op. Dr. Dolgun Dalgıçoğlu,34,TRUE,4,41.064751,28.852399,426
Uzm. Dr. Samir Allahverdiyev,34,TRUE,4,40.990396,28.79724,447
Ody. Dr. Begümsu Güller,34,TRUE,4,41.115101,29.056061,451
Op. Dr. Murat Polat,34,TRUE,4,41.087231,29.011588,431
Uzm. Dr. Bedi Turhan,34,TRUE,4,41.049298,28.904454,430
Uzm. Dr. Berşan Nalan Aytaç,34,TRUE,4,41.037235,29.085875,459
Prof. Dr. Özer Pala,34,TRUE,4,41.100949,29.071909,432
Psk. Çağla Kananoğulları,34,TRUE,6,40.981893,28.661297,433
Prof. Dr. Bekir Atik,34,TRUE,4,40.910698,29.297988,449
Op. Dr. Ahmet Köremezli,34,TRUE,4,41.084215,29.013199,431
Uzm. Kl. Psk. Gizem Yılmaz Çelenk,34,TRUE,6,40.975815,28.65511,433
Uzm. Dr. Yusuf Topal,34,TRUE,4,41.058233,28.716013,425
Uzm. Psk. Gözde Ay Nalbantoğlu,34,TRUE,6,41.011921,28.642918,433
Uzm. Psk. Gizem Topkara,34,TRUE,6,41.059106,29.014714,431
Uzm. Dr. Önder Taylan Çifçi,34,TRUE,4,41.087235,29.011817,431
Dr. Melike Külahçı,34,TRUE,4,41.085012,29.017583,431
Fzt. Ammar Mustafa Canpolat,34,TRUE,4,41.085747,29.020222,431
Prof. Dr. Ateş Karateke,34,TRUE,4,40.986355,29.109905,424
Prof. Dr. Serap Erdine,34,TRUE,4,41.067085,29.02993,431
Op. Dr. Derya Bingöl,34,TRUE,4,41.067681,29.01961,431
Uzm. Dr. Atiye Börtlüoğlu Göçmen,34,TRUE,4,41.10073,28.788583,429
Dr. Mustafa Kemal Ataönder,34,TRUE,4,41.024865,29.078656,459
Op. Dr. Onur Sümer,34,TRUE,4,41.082436,29.028359,431
Dr. Gonca Aydemir,34,TRUE,4,40.970753,29.055004,444
Dr. Erol Ünder,34,TRUE,4,40.895985,29.370543,457
Uzm. Kl. Psk. Handan Erdoğan,34,TRUE,6,41.021622,29.067641,459
Uzm. Kl. Psk. Meryem Yıldırım,34,TRUE,6,40.877049,29.239728,449
Uzm. Kl. Psk. Ece Toçoğlu,34,TRUE,6,40.89132,29.176148,446
Psk. Azra Eratilla,34,TRUE,6,40.89864,29.165793,446
Psk. Senem Eke Yıldız,34,TRUE,6,40.988389,29.111218,424
Psk. Dilara Savaş,34,TRUE,6,40.940384,29.141283,448
Psk. Sümeyye Ekin Demir,34,TRUE,6,40.914528,29.231232,446
Psk. Özgün Budacı,34,TRUE,6,41.182019,28.893061,440
Psk. Merve Dökümcü Çakan,34,TRUE,6,41.061303,28.680798,439
Uzm. Psk. Sandy Kasar Ben,34,TRUE,6,41.071079,29.011366,456
Psk. Simay Arduç,34,TRUE,6,41.005894,29.03637,444
Uzm. Dr. Ayşe Önal,34,TRUE,4,41.005925,29.036509,444
Dr. Sibel Aksakal,34,TRUE,4,41.078091,29.019787,431
Uzm. Kl. Psk. Enes Kuş,34,TRUE,6,40.96994,29.061532,444
Doç. Dr. İbrahim Aşkar,34,TRUE,4,40.988503,29.129185,424
Psk. Zerrin Gündüz,34,TRUE,6,41.060001,28.679188,439
Uzm. Psk. Ceyda Aktaş Bağcı,34,TRUE,6,40.96774,29.059392,444
Doç. Dr. Cenk Eray Yıldız,34,TRUE,4,41.009205,28.943357,441
Prof. Dr. Bahar Kuru,34,TRUE,4,40.985207,29.047314,444
Prof. Dr. İlke Sipahi,34,TRUE,4,40.990494,28.847636,428
Uzm. Kl. Psk. İrem Yılmazer,34,TRUE,6,41.01204,29.179818,458
Dr. Can Zinneha,34,TRUE,4,40.979794,29.04072,444
Uzm. Kl. Psk. İpek Güzide Pur,34,TRUE,6,40.975655,29.046402,444
Uzm. Psk. Nil Madi,34,TRUE,6,40.987408,29.034931,444
Uzm. Kl. Psk. Kaan Öner,34,TRUE,6,40.975015,29.051627,444
Uzm. Kl. Psk. Begüm Arslantaş Büyükkeser,34,TRUE,6,40.976617,29.043599,444
Uzm. Dr. Kerem Baykal,34,TRUE,4,40.974286,29.043084,444
Psk. Ümran Yurt Ersoy,34,TRUE,6,41.064693,28.693145,429
Dr. Dt. Dilek Durak,34,TRUE,7,41.064203,28.689824,429
Uzm. Dr. Nuray Başçiftçi Top,34,TRUE,4,40.886486,29.280361,449
Dr. Dt. Tuğçe Sümer,34,TRUE,7,41.051335,28.989816,456
Doç. Dr. Canan Tanıdır,34,TRUE,4,41.063978,28.685937,429
Uzm. Psk. Sibel Deniz Toledo,34,TRUE,6,41.072705,29.021639,431
Uzm. Kl. Psk. Ayza Sekizkardeş,34,TRUE,6,41.120501,28.771245,429
Psk. Büşranur Yaşar,34,TRUE,6,40.977559,28.793566,428
Uzm. Kl. Psk. Dilay Celasun,34,TRUE,6,41.053517,28.99614,456
Uzm. Dr. Oğuzhan Dolar,34,TRUE,4,41.045732,29.078176,459
Op. Dr. Gürsel Uludoğan,34,TRUE,4,40.989472,29.065409,444
Prof. Dr. Sırrı Bektaş,34,TRUE,4,40.961444,28.838986,428
Psk. Belis Kamhi,34,TRUE,6,41.062607,29.036578,431
Psk. Dan. Begüm Kodalak Bilik,34,TRUE,6,40.980286,29.078083,444
Uzm. Kl. Psk. Dilek Açıkgöz,34,TRUE,6,41.065038,29.000674,456
Psk. İbrahim Erdoğan,34,TRUE,6,40.990055,28.613599,433
Uzm. Kl. Psk. Cansu Yılmaz,34,TRUE,6,41.011616,28.654027,439
Dr. Özgür Esen Çetiner,34,TRUE,4,40.967648,29.066616,444
Prof. Dr. Sefa Saygılı,34,TRUE,4,41.086265,29.155074,432
Uzm. Kl. Psk. Sema Akkoyun,34,TRUE,6,41.025458,28.934596,441
Psk. Canan Araz,34,TRUE,6,40.891251,29.250029,449
Uzm. Kl. Psk. Alara Candan,34,TRUE,6,41.057008,28.989471,456
Fzt. Kevser Demir,34,TRUE,4,41.016434,28.936667,441
Op. Dr. Derya Uyan,34,TRUE,4,41.036121,28.788721,447
Op. Dr. Arzu Öz,34,TRUE,4,40.982815,29.092219,444
Doç. Dr. Mehmet Nurullah Ermiş,34,TRUE,4,40.98404,29.108177,424
Op. Dr. Savaş Sarı,34,TRUE,4,40.985345,29.110616,424
Uzm. Dr. Ayfer Çelik,34,TRUE,4,41.044209,29.088265,459
Op. Dr. Mehmet Hatemi,34,TRUE,4,41.048764,28.930667,440
Dr. Öğr. Üyesi Meltem Çakır,34,TRUE,4,41.061928,28.902656,442
Op. Dr. Celal Alioğlu,34,TRUE,4,40.818469,29.292145,457
Dr. Pınar Birler,34,TRUE,4,41.011313,29.220978,450
Uzm. Kl. Psk. Zümrüt Çetin,34,TRUE,6,41.014944,29.011899,459
Uzm. Kl. Psk. Çıdam Kumkale Sönmez,34,TRUE,6,41.060674,28.789345,447
Uzm. Kl. Psk. Gözde Avşar,34,TRUE,6,41.054532,29.008078,431
Uzm. Kl. Psk. Emine Palaz,34,TRUE,6,41.010579,29.080765,459
Uzm. Dr. Canan Akbaş Güngör,34,TRUE,4,41.019833,29.045838,459
Uzm. Dr. Handan Sarımehmet Kılınç,34,TRUE,4,41.037647,28.78798,447
Uzm. Dr. Özlem Varol,34,TRUE,4,41.064743,29.030636,431
Dr. Aytül Papatya,34,TRUE,4,41.091693,29.004464,445
Op. Dr. Aslı Alay,34,TRUE,4,40.996472,29.107911,424
Uzm. Dr. Bahriye Altaş,34,TRUE,4,41.08799,28.974769,445
Psk. Yasemin Çelik Esen,34,TRUE,6,41.058121,28.910622,442
Uzm. Dkt. Nurcan Kement,34,TRUE,4,40.991162,29.127317,424
Uzm. Dr. Serap Gülçür,34,TRUE,4,41.064122,28.686943,429
Op. Dr. İbrahim Bayraktar,34,TRUE,4,40.828671,29.308007,457
Prof. Dr. İbrahim Ömer Saatçioğlu,34,TRUE,4,41.061048,28.983989,456
Uzm. Dr. Bülent Bağcı,34,TRUE,4,41.078045,29.031921,431
Psk. İnci Özkoray,34,TRUE,6,41.138589,29.037802,451
Dr. Ömer Gümüş,34,TRUE,4,41.045581,28.973142,434
Uzm. Dr. Cüneyt Bilen,34,TRUE,4,41.053172,28.996613,456
Psk. Yağmur Vardar,34,TRUE,6,40.957651,29.090064,444
Dr. Mehtap Vatansever,34,TRUE,4,41.065259,28.69903,429
Dr. Esen Koçyiğit,34,TRUE,4,41.047989,29.102326,458
Dr. Öğr. Üyesi Murat Kalaycı,34,TRUE,4,40.984517,29.113373,424
Uzm. Psk. Şebnem Kartal,34,TRUE,6,40.991318,29.133561,424
Dr. Salih Yıldırım,34,TRUE,4,40.999226,28.655681,433
Op. Dr. Mehmet Veli Aslan,34,TRUE,4,40.997037,28.677472,433
Dr. Murat Fatih Sökmen,34,TRUE,4,41.130511,28.832056,454
Psk. Cenya Katalan,34,TRUE,6,41.052399,28.906466,430
Uzm. Kl. Psk. Aynur Deniz,34,TRUE,6,41.042996,28.983559,456
Uzm. Dr. Murat Şener,34,TRUE,4,40.980534,28.792628,428
Psk. Evrim Türkmen,34,TRUE,6,40.952527,29.098309,448
Dr. Ebru Başyurt,34,TRUE,4,40.987542,29.148971,424
Psk. Seda Aydın,34,TRUE,6,40.943836,29.153602,448
Dr. Öğr. Üyesi Özlem Karadağ Köse,34,TRUE,4,41.078,29.016965,431
Uzm. Kl. Psk. Ayşe Girgin,34,TRUE,6,41.004269,29.217894,450
Prof. Dr. Mehmet Babür Kaleli,34,TRUE,4,40.966523,28.641992,433
Uzm. Kl. Psk. Eldem Erdem,34,TRUE,6,41.057532,28.998902,456
Uzm. Dr. Mahya Sultan Tosun,34,TRUE,4,41.063232,28.697346,429
Uzm. Kl. Psk. Işık Dilayla Elgin,34,TRUE,6,41.087529,28.651189,429
Uzm. Psk. Amine Öztürk,34,TRUE,6,41.10186,28.787785,429
Op. Dr. Hüseyin Ahmet Girgin,34,TRUE,4,41.008512,28.606831,435
Doç. Dr. Kani Gemici,34,TRUE,4,41.024843,29.012782,459
Prof. Dr. Erdinç Ünlüer,34,TRUE,4,41.053511,28.99488,456
Uzm. Dr. Türker Emre,34,TRUE,4,41.008561,28.946851,441
Uzm. Dr. Betül Fatma Cengiz,34,TRUE,4,41.021988,28.827222,426
Dr. Muzaffer Duman,34,TRUE,4,41.033066,28.830337,426
Uzm. Kl. Psk. Hilal Bebek,34,TRUE,6,40.992848,29.085646,424
Dr. Levent Türbedar,34,TRUE,4,41.066564,28.904954,442
Doç. Dr. Tolga Sinan Güvenç,34,TRUE,4,40.869179,29.273277,449
Doç. Dr. Cihan Şahin,34,TRUE,4,40.984642,29.109201,424
Psk. Dan. Dilara Kaymakcı,34,TRUE,6,41.050234,29.053248,459
Dr. Cem Saim Tartar,34,TRUE,4,41.181904,28.740952,423
Doç. Dr. Bora Koç,34,TRUE,4,41.067128,28.996381,456
Dr. Abdullah Altıok,34,TRUE,4,40.983054,29.243596,450
Psk. Dilek Kılıç,34,TRUE,6,40.991168,29.128126,424
Uzm. Psk. Aslı Candan Kodalak,34,TRUE,6,41.083261,28.972316,445
Uzm. Dr. Zafer Atakan,34,TRUE,4,41.070644,28.997206,456
Psk. Esna Serbest,34,TRUE,6,41.085055,28.910518,442
Uzm. Psk. Fatma Zehra Yazıcı,34,TRUE,6,41.015881,28.64674,439
Uzm. Dr. Özruhan Aygın,34,TRUE,4,41.017426,29.167361,458
Uzm. Dr. Leyla Kayıhan,34,TRUE,4,41.043722,29.006772,431
Prof. Dr. Esat Uğur Görpe,34,TRUE,4,41.047211,29.007439,431
Op. Dr. Rıza Efendi Karaca,34,TRUE,4,41.076784,28.972068,445
Psk. Seda Arslan,34,TRUE,6,41.006546,28.799508,447
Uzm. Dr. Eda Kumbasar,34,TRUE,4,41.025446,28.830681,426
Fzt. Abdulvahap Sezer,34,TRUE,4,41.082264,28.75056,429
Uzm. Dr. Hülya Şengül,34,TRUE,4,41.018865,28.689154,439
Op. Dr. Onur Çukurluoğlu,34,TRUE,4,41.084827,28.984861,445
Op. Dr. Abdulkadir Kilimcioğlu,34,TRUE,4,41.081913,28.981953,445
Op. Dr. Yusuf Can,34,TRUE,4,41.000275,29.065109,459
Op. Dr. Defne Erkara,34,TRUE,4,41.068573,29.010723,456
Uzm. Psk. Ayşem Yorulmaz Ulutaş,34,TRUE,6,41.0029,29.049321,459
Psk. Seçil Yıkar,34,TRUE,6,41.059046,28.915667,442
Dr. Ali Ersin,34,TRUE,4,40.816525,29.305202,457
Uzm. Dr. Hilmi Şenli,34,TRUE,4,41.012868,28.797553,447
Dr. Dt. Dilek Güvenç,34,TRUE,7,41.013462,29.194222,450
Psk. Songül Keskin,34,TRUE,6,41.031286,29.182654,437
Uzm. Kl. Psk. Zeynep Balkız,34,TRUE,6,41.00546,28.672486,433
Uzm. Kl. Psk. Merve Demir,34,TRUE,6,41.053563,28.994864,456
Uzm. Dr. Mehmet Ferhan Şengün,34,TRUE,4,41.044941,29.045469,459
Uzm. Dr. Seran Şimşir,34,TRUE,4,40.984025,29.113364,424
Uzm. Dr. Fikret Tilgen,34,TRUE,4,41.078202,28.987309,445
Doç. Dr. Ahmet Bülent Kargı,34,TRUE,4,40.849652,29.298874,457
Prof. Dr. Bülent Baysal,34,TRUE,4,41.108677,29.018328,451
Op. Dr. Naci Çelik,34,TRUE,4,41.049348,28.993551,456
Dr. Bekir Kemertaş,34,TRUE,4,40.966115,29.102918,444
Doç. Dr. Aslı Enez Darçın,34,TRUE,4,41.054091,28.994929,456
Uzm. Psk. Amine Öztürk,34,TRUE,6,41.013186,28.64414,433
Uzm. Psk. Ahmet Işın,34,TRUE,6,41.048837,29.007792,431
Uzm. Kl. Psk. Yeliz Başeğmez Aydın,34,TRUE,6,40.973264,29.055584,444
Uzm. Psk. Reyhan Nuray Duman,34,TRUE,6,41.054062,28.994961,456
Psk. Beste Buse Polat,34,TRUE,6,41.100637,28.810427,429
Uzm. Kl. Psk. Fethiye Zalım Başbekleyen,34,TRUE,6,41.101235,28.811383,429
Psk. Ece Kutluay,34,TRUE,6,40.979279,29.049726,444
Psk. Meryem Durgun,34,TRUE,6,41.092001,28.811824,429
Uzm. Kl. Psk. Betül Güçlü,34,TRUE,6,41.006505,28.798613,447
Uzm. Fzt. Ergün Kılınç,34,TRUE,4,41.064774,28.995351,456
Uzm. Kl. Psk. Çağla Begüm Yüce,34,TRUE,6,40.977116,29.070509,444
Uzm. Dr. Fatma Sinem Hocaoğlu Emre,34,TRUE,4,41.008545,28.824723,427
Prof. Dr. Sibel Çakır,34,TRUE,4,41.016002,28.933389,441
Psk. Berfin Yılmaz,34,TRUE,6,41.007847,29.038424,444
Uzm. Dr. Ayten Nermin Güvenç,34,TRUE,4,40.995364,29.234588,450
Psk. Eray Efe,34,TRUE,6,41.018601,28.643867,439
Psk. Sevil Usanmaz,34,TRUE,6,40.966179,29.069054,444
Psk. Melis Onglu,34,TRUE,6,41.053449,28.994547,456
Uzm. Kl. Psk. Zeynep Tuba Akay,34,TRUE,6,41.01809,29.040269,459
Dr. Gönül Ateşsaçan,34,TRUE,4,40.983177,29.091909,444
Uzm. Kl. Psk. Merve Ekşi,34,TRUE,6,41.067906,28.993161,456
Dr. Lale Elekberova,34,TRUE,4,41.056702,28.976765,456
Prof. Dr. Serdar Turhal,34,TRUE,4,40.969316,29.063148,444
Dr. Necdet Öztürk,34,TRUE,4,40.8686,29.294294,449
Psk. Derya Göksel,34,TRUE,6,40.957962,29.105651,444
Uzm. Kl. Psk. Kumru Şerifova,34,TRUE,6,41.016549,28.64025,439
Fzt. Kenan Zafer Aksungur,34,TRUE,4,41.048569,29.021617,431
Psk. Gizem Ateş,34,TRUE,6,41.054326,28.985572,456
Psk. Gülay Karaman,34,TRUE,6,41.053959,28.995506,456
Uzm. Kl. Psk. Ezgi Emiroğlu,34,TRUE,6,41.042817,28.999394,431
Uzm. Kl. Psk. Gülşah Öztürk Erten,34,TRUE,6,40.966362,29.067707,444
Psk. Duygu Dağdeviren,34,TRUE,6,41.031269,29.182791,437
Uzm. Dr. Ayşegül Çoruhlu,34,TRUE,4,41.045353,28.993946,456
Dr. Öğr. Üyesi Meral Saracel Benbiçaço,34,TRUE,4,41.053067,28.994269,456
Prof. Dr. Taner Yavuz,34,TRUE,4,40.98195,29.10625,424
Fzt. Gülben Gizem Yaşar,34,TRUE,4,40.96603,29.103003,444
Dkt. Büşra Aytar,34,TRUE,4,41.0873,28.89762,442
Uzm. Dkt. Mushap Akgün,34,TRUE,4,41.037736,28.849486,426
Op. Dr. Aykhan Abbasov,34,TRUE,4,41.061047,29.028444,431
Op. Dr. Tolga Mertoğlu,34,TRUE,4,40.999733,29.101547,424
Op. Dr. Orhan Tuğrul,34,TRUE,4,41.052731,29.000118,456
Psk. Ceyda Yılmaz,34,TRUE,6,40.9087,29.199276,446
Op. Dr. Yücel Sarıaltın,34,TRUE,4,41.000796,29.102718,424
Op. Dr. Evren Helvacı,34,TRUE,4,40.99593,29.110701,424
Uzm. Kl. Psk. Deniz Asolar,34,TRUE,6,41.035366,28.99026,434
Psk. Elçin Biçer,34,TRUE,6,41.075005,28.979096,445
Uzm. Kl. Psk. Çiğdem Vaizoğlu Şengünler,34,TRUE,6,40.970172,29.061727,444
Op. Dr. Serkan Gürcan,34,TRUE,4,41.051862,28.991931,456
Uzm. Dr. Güzin Güntekin,34,TRUE,4,41.014531,28.919527,460
Uzm. Kl. Psk. İlknur Yılmaz,34,TRUE,6,40.98869,28.848416,428
Fzt. Aylin Yıldız,34,TRUE,4,41.087235,28.897563,442
Psk. Dan. Muhammet Serhan Özkan,34,TRUE,6,41.062737,28.892087,430
Psk. Dan. Fatma Çelik,34,TRUE,6,41.055694,28.985674,456
Dr. Dt. Ebru Toprakseven,34,TRUE,7,40.980274,28.7179,425
Dr. Dt. Seden Aksu,34,TRUE,7,41.049431,28.850068,426
Dr. Dt. Ogün Öz,34,TRUE,7,41.020561,28.836444,427
Dr. Dt. Ümit Sait Yavuz,34,TRUE,7,41.088174,28.915015,442
Dr. Dt. Burak Kut,34,TRUE,7,41.065743,28.997277,456
Dr. Dt. Ceren Uluocak Kardeş,34,TRUE,7,40.994645,29.0304,444
Dr. Dt. Güçlü Armutçu,34,TRUE,7,41.052472,28.991335,456
Dr. Dt. Serhat Demirer,34,TRUE,7,40.9637,29.103415,444
Dr. Dt. Eser Elemek,34,TRUE,7,40.9562,29.094281,444
Dr. Dt. Kaan Kıraç,34,TRUE,7,41.087645,28.968608,445
Uzm. Psk. Ramazan Kuruçay,34,TRUE,6,40.966194,29.125573,448
Psk. Özlem Turan,34,TRUE,6,40.999875,28.773041,447
Uzm. Kl. Psk. Müge Sargın,34,TRUE,6,41.049954,29.008092,431
Uzm. Dr. Lütfiye Defne Tamar Gürol,34,TRUE,4,41.04958,28.994788,456
Uzm. Dr. Evşen Altunay,34,TRUE,4,41.05378,28.994132,456
Erg. Beyza Nur Aladağ,34,TRUE,4,41.057145,28.913367,442
Doç. Dr. Işıl Göğcegöz,34,TRUE,4,41.024964,29.038828,459
Op. Dr. Cengiz Duman,34,TRUE,4,40.968657,29.25349,453
Psk. Serap Filizcan Aydın,34,TRUE,6,41.06493,28.70006,425
Doç. Dr. Ayşegül Küçükali Türkyılmaz,34,TRUE,4,40.935437,29.124842,448
Uzm. Psk. Ecem Uzun Adaş,34,TRUE,6,41.062096,28.940493,440
Erg. Betül Yıldırım,34,TRUE,4,41.00014,28.712492,425
Psk. Hatice Kübra Şen,34,TRUE,6,41.034142,29.158059,458
Dr. Ali Osman Apaydın,34,TRUE,4,41.052678,28.993624,456
Uzm. Dr. Mesut Yavuz,34,TRUE,4,41.096283,28.862695,454
Uzm. Dr. Atıf Akyol,34,TRUE,4,41.05799,28.988006,456
Uzm. Kl. Psk. Eda Nur Irmak,34,TRUE,6,41.074612,29.019197,431
Op. Dr. Şerife Erdem,34,TRUE,4,40.995629,29.110999,424
Psk. Merve Temur,34,TRUE,6,41.01307,29.196523,450
Uzm. Psk. İdil Cemre Öztep,34,TRUE,6,40.991651,29.1145,424
Op. Dr. Arda Katırcıoğlu,34,TRUE,4,41.051262,28.990348,456
Uzm. Kl. Psk. Orhan Taruk,34,TRUE,6,41.062057,29.011967,431
Uzm. Kl. Psk. Duygu Demirbaş Karaer,34,TRUE,6,40.99091,29.121931,424
Fzt. Gökhan Gündoğan,34,TRUE,4,40.969329,29.063059,444
Uzm. Kl. Psk. Cansu Melisa Özen,34,TRUE,6,40.931396,29.1367,448
Uzm. Dr. Sadettin Demiray,34,TRUE,4,40.994946,29.045602,444
Uzm. Dr. Taylan Temel,34,TRUE,4,41.055772,28.672211,439
Uzm. Kl. Psk. Merve Çalışkan,34,TRUE,6,41.117608,28.768038,429
Prof. Dr. Nazım Umur Çolgar,34,TRUE,4,40.891224,29.249867,449
Uzm. Kl. Psk. Mehmet Ali Tekeş,34,TRUE,6,41.048916,29.007748,431
Psk. Eda Kurtuluş Akın,34,TRUE,6,41.052358,28.992455,456
Uzm. Kl. Psk. Ceren Kurtay Doğan,34,TRUE,6,40.98074,29.024317,444
Psk. Dan. Nursena Ocak,34,TRUE,6,41.013345,28.644595,433
Dr. Bülent Şaraplı,34,TRUE,4,41.083661,29.07925,432
Uzm. Dr. Şükran Sarıgül Güdük,34,TRUE,4,40.991103,29.051146,444
Dr. Birsen Çavuşoğlu,34,TRUE,4,41.033556,29.065347,459
Dr. Atilla Okcan,34,TRUE,4,40.970547,29.130713,448
Psk. Gözde Bilenser,34,TRUE,6,41.032343,29.031493,459
Uzm. Dr. Türkan Mutafoğlu,34,TRUE,4,40.97408,29.109908,424
Uzm. Dr. Emine Kurt Antmen,34,TRUE,4,40.914218,29.305774,449
Psk. Hasibe Yıldırım,34,TRUE,6,40.957236,29.221193,450
Dr. Ersun Çobanoğlu,34,TRUE,4,41.054738,28.992308,456
Uzm. Psk. Canset Tütüncüoğlu,34,TRUE,6,40.99271,29.128089,424
Psk. Hülya Macit,34,TRUE,6,41.006836,29.051114,459
Psk. Dan. Meral Kaya,34,TRUE,6,40.914192,29.30564,449
Uzm. Dr. Yıldız Tanrıseven,34,TRUE,4,41.016595,28.889777,443
Doç. Dr. Şinasi Numan,34,TRUE,4,41.046712,28.973309,456
Dr. Yücel Gökçen,34,TRUE,4,40.982338,28.861631,428
Uzm. Dr. Hidayet Gürsoy,34,TRUE,4,41.067778,29.087217,432
Prof. Dr. H. Vecdet Tezcan,34,TRUE,4,41.048681,28.974893,456
Dr. Osman Bayrak,34,TRUE,4,41.048236,28.931655,440
Uzm. Dr. Bahadır Yılmaz,34,TRUE,4,41.128209,29.036391,451
Uzm. Kl. Psk. Işın Şanlı,34,TRUE,6,41.041082,28.698073,425
Fzt. Gizem Şimşek Seçkin,34,TRUE,4,40.957899,29.105701,444
Prof. Dr. Erdem Kaşıkçıoğlu,34,TRUE,4,41.077672,29.018478,431
Bakırköy Mazhar Osman Ruh ve Sinir Hastalıkları Eğitim Araştırma Hastanesi,34,TRUE,24,40.986733,28.862279,428
Özel Pendik Bölge Hastanesi,34,TRUE,17,40.882527,29.245569,449
Özel Doktor Nazif Bağrıaçık Kadıköy Hastanesi,34,TRUE,17,40.99829,29.03338,444
T.C. Sağlık Bakanlığı Başakşehir Devlet Hastanesi,34,TRUE,13,41.118189,28.80885,429
Prof. Dr. Cemil Taşcıoğlu Şehir Hastanesi,34,TRUE,25,41.065208,28.974402,456
Özel İstanbul Medipol Hastanesi,34,TRUE,17,41.00483,29.034164,444
Özel Medigold Sultan Hastanesi,34,TRUE,17,41.099494,28.863541,454
T.C. Sağlık Bakanlığı Prof. Dr. Necmi Ayanoğlu Silivri Devlet Hastanesi,34,TRUE,13,41.077981,28.250285,452
Özel Moodist Hastanesi,34,TRUE,17,41.002145,29.053447,459
Özel Balat Hastanesi,34,TRUE,17,41.038443,28.945532,441
Özel Kurtköy Ersoy Hastanesi,34,TRUE,17,40.910728,29.297997,449
Özel Medipol Mega Hastaneler Kompleksi,34,TRUE,17,41.058256,28.842011,426
Özel Estethica Levent Hastanesi,34,TRUE,17,41.086025,29.017863,431
Özel Acıbadem Maslak Hastanesi,34,TRUE,17,41.127456,29.024787,451
Kağıthane Kızılay Hastanesi,34,TRUE,17,41.082758,28.970922,445
İstinye Devlet Hastanesi,34,TRUE,13,41.11493,29.055733,451
Özel Liv Hospital Ulus Hastanesi,34,TRUE,17,41.060702,29.02872,431
Özel Hürrem Sultan Hastanesi,34,TRUE,17,41.023064,29.017327,459
Özel Halkalı Kent Hastanesi,34,TRUE,17,41.035329,28.794022,447
Trend Göz Optik,34,TRUE,5,40.984608,29.097801,424
Özel Acıbadem International Hospital,34,TRUE,17,40.958695,28.835786,428
Özel Medical Park Göztepe Hastanesi Kopmleksi,34,TRUE,17,40.990322,29.07752,444
T.C. Sağlık Bakanlığı Avcılar Murat Kölük Devlet Hastanesi,34,TRUE,13,40.984576,28.731283,425
Özel Başarı Hastanesi,34,TRUE,17,41.079975,28.906748,442
Özel Doğan Hastanesi,34,TRUE,17,40.986977,28.784605,447
Mehmet Akif Ersoy Göğüs Kalp ve Damar Cerrahisi Eğitim ve Araştırma Hastanesi,34,TRUE,24,41.033532,28.77769,447
İstanbul Medipol Üniversitesi Sağlık Eğitim Uygulama Merkezi,34,TRUE,24,41.05118,28.865909,438
Dr. Yalçın Aydın,34,TRUE,7,40.981179,29.086312,444
Ultra Emar,34,TRUE,26,41.014406,28.933491,441
Diş Hekimi Mithat Demirkazık,34,TRUE,7,40.983817,29.039392,444
Repa Grup Sağlık Ürünleri,34,TRUE,1,41.008402,29.066606,459
Göz Grup Optik,34,TRUE,5,41.032581,29.113886,458
Diş Hekimi Atilla Özaktürk,34,TRUE,7,41.026301,28.954601,441
Uzm. Dr. Kamil Aydın Gürbüz,34,TRUE,4,41.023634,29.083196,459
Uğur Optik,34,TRUE,5,41.073733,28.903736,442
Dr. Erhan Yüce Çocuk Hastalıkları Merkezi,34,TRUE,4,41.004081,28.866601,427
Duy - Med İşitme Cihazları,34,TRUE,11,40.981969,28.721425,425
Deva Medikal,34,TRUE,1,41.015066,28.933015,441
Diyetisyen Dilek Yüksel,34,TRUE,8,41.016369,28.930319,441
Can Optik,34,TRUE,5,41.143264,28.459226,436
Özel Vita Life,34,TRUE,14,40.885233,29.228897,449
Dt. Şebnem Şensivas,34,TRUE,7,40.97524,29.071123,444
Hira Diş,34,TRUE,15,41.013298,28.938863,441
Atasun Optik,34,TRUE,5,40.815924,29.316773,457
Hane Optik,34,TRUE,5,41.016722,29.138736,458
Eymen Optik,34,TRUE,5,41.022561,29.080584,459
Prof. Dr. Aytül Çorbacıoğlu Pozitif Perinatoloji ve Kadın Sağlığı,34,TRUE,4,41.067671,28.994355,456
Psk. Işıl Hazal Saraç,34,TRUE,6,41.035094,29.174134,437
Türk Böbrek Vakfı Memorial Hizmet Hastanesi,34,TRUE,17,41.000953,28.880155,427
Uzm. Dr. Yasemin Arslan,34,TRUE,4,41.066228,29.004229,431
Diyetisyen Funda Nur Çelik,34,TRUE,8,40.968545,29.260193,453
İstanbul Elmas Diş,34,TRUE,2,41.184148,28.884135,440
Uysal Optik,34,TRUE,5,40.945926,29.111875,448
Diş Hekimi Sacit Aykut,34,TRUE,7,40.978413,28.875791,428
Diş Hekimi Reşat Dikici,34,TRUE,7,40.978439,28.87611,428
Diş Hekimi Berna Ayar,34,TRUE,7,40.975192,29.053575,444
Diş Hekimi Recep Atalay,34,TRUE,7,40.971092,29.061093,444
Doç. Dr. Gökhan Temiz,34,TRUE,4,40.968891,29.065262,444
Diş Hekimi Yeşim Karagöz,34,TRUE,7,40.986659,29.0464,444
Avrupa Sağlık Grubu,34,TRUE,14,41.182028,28.744551,423
Diş Hekimi Dr. Mehmet Ali Güven,34,TRUE,7,41.075399,29.019605,431
İstanbul El Cerrahisi,34,TRUE,3,41.054217,28.996147,456
Dr. Şükran Kaffaf,34,TRUE,7,40.986842,28.904498,460
Doç. Dr. Harun Çöloğlu,34,TRUE,4,41.051025,28.990188,456
Çarşı Optik,34,TRUE,5,40.910855,29.16713,446
Diş Hekimi Uğur Altınay,34,TRUE,7,40.971045,29.127061,448
Diş Hekimi M. Fatih Okan,34,TRUE,7,40.990114,28.871342,428
Psikiyatrist Dr. Gıyasettin Ekici,34,TRUE,6,40.984705,28.872556,428
Mcs Psikoloji,34,TRUE,6,41.075969,29.020013,431
Uzm. Dr. Selma Nihan Karakaya,34,TRUE,4,41.006866,29.037599,444
Diş Hekimi Mertcan Kamalı,34,TRUE,7,41.007,29.047411,459
Diş Hekimi Burhan Babayiğit,34,TRUE,7,41.0843,29.0677,432
A. Fevzi Yavaş Estetisyen,34,TRUE,4,40.96303,29.075095,444
Uzman İşitme Cihazları,34,TRUE,11,41.002964,28.936621,441
T.C. Sağlık Bakanlığı Şile Devlet Hastanesi,34,TRUE,13,41.174616,29.616884,455
Allergo İlaç,34,TRUE,1,40.984106,29.057548,444
Diş Hekimi Gülcan Kabaca,34,TRUE,7,40.975173,29.053491,444
Psikiyatri Dr. Osman Kaur,34,TRUE,6,40.968554,29.085022,444
Mehmet Optik,34,TRUE,5,41.023993,29.088462,458
Dyt. Rotinda Çağdaş,34,TRUE,8,40.976655,29.078988,444
Cbt Marmara Psikoloji,34,TRUE,6,40.978406,29.045639,444
Diş Hekimi Gül Öz Çalışkan,34,TRUE,7,41.067656,28.896962,442
Lider Optik,34,TRUE,5,40.980649,28.87973,428
Nuri Deveci,34,TRUE,7,41.062796,28.987766,456
Uzm. Dr. Ayşegül Demirel,34,TRUE,4,41.024338,29.08446,458
Diş Hekimi Yılmaz & Aslı Dayan,34,TRUE,7,41.04504,28.945701,434
Sevimli Psikoteknik,34,TRUE,10,40.825019,29.353496,457
Ay Yıldız Psikoteknik,34,TRUE,10,40.894572,29.198652,446
Ce Dent Ağız ve Diş Sağlığı Polikliniği,34,TRUE,2,41.006899,28.942021,441
Ted Medikal,34,TRUE,1,40.992289,29.039165,444
Op. Dr. Gökhan Mersinlioğlu,34,TRUE,4,40.980771,29.042561,444
Diş Hekimi Mohsen Tajik,34,TRUE,7,41.002321,28.78818,447
Performist Medical & Exercise & Equipments,34,TRUE,1,40.989404,29.161501,424
Güngören Ağız ve Diş Sağlığı Merkezi,34,TRUE,16,41.021751,28.870981,443
Diş Hekimi M. Fatih Kaya,34,TRUE,7,41.016445,28.950842,441
Ahmet Optik,34,TRUE,5,40.877626,29.264855,449
Dr. Dt. Cemile Uysal,34,TRUE,7,40.984328,29.05489,444
Alsancak Optik,34,TRUE,5,40.991725,28.88212,428
Diş Hekimi Meral Gayhan,34,TRUE,7,41.071655,28.894474,442
Dr. Gamze Etemoğlu,34,TRUE,7,41.003377,28.859167,427
Msm Terapi Merkezi,34,TRUE,19,41.010238,29.035049,444
Fitbes,34,TRUE,19,41.026784,28.829327,426
Cebeci Dental,34,TRUE,2,40.925218,29.132328,448
Psk. Elif Yeşim Çavuşoğlu,34,TRUE,6,41.067967,28.732542,429
Mavi Optik,34,TRUE,5,41.030606,28.839039,426
Elit İşitme Cihazları,34,TRUE,11,41.031557,28.843789,426
Tanem Optik,34,TRUE,5,41.005593,28.841473,427
Gülen Optik,34,TRUE,5,40.969376,29.257869,453
Yıldız Optik,34,TRUE,5,41.016032,28.973372,441
Adım Optik,34,TRUE,5,40.912763,29.175485,446
Diş Hekimi Hasan Türüdü,34,TRUE,7,41.078543,29.00247,445
Dr. Emre Tambay,34,TRUE,4,40.961595,29.07851,444
Diş Hekimi Ufuk Kanta,34,TRUE,7,40.977908,28.722798,425
Neva Fizyoterapi,34,TRUE,4,41.019387,28.646786,439
Diş Hekimi Mehmet Ali Araz,34,TRUE,7,40.985378,29.230898,450
Adil Gözlük,34,TRUE,5,41.067651,28.90462,442
Pusula Psikoloji,34,TRUE,6,41.074588,28.942367,440
Pusula Beslenme ve Diyet Danışmanlığı,34,TRUE,8,41.074656,28.942298,440
Özel Amerikan Cerrahi Tıp Merkezi,34,TRUE,14,41.058776,28.99264,456
Dişçim İstanbul,34,TRUE,2,41.181737,28.88942,440
Diş Hekimi Nabi Danacı,34,TRUE,7,41.068165,28.998359,456
Kanyon Optik,34,TRUE,5,41.000916,28.870725,427
Akademi 34 Ağız ve Diş Sağlığı Merkezi,34,TRUE,2,41.014635,29.055525,459
Dr. Öğr. Üyesi Muzaffer Uçarer,34,TRUE,4,41.065465,28.695554,429
Özel Vera Tıp Merkezi,34,TRUE,14,41.006048,28.796744,447
Uzm. Dr. Şaban Bayyozgat,34,TRUE,4,41.016372,29.184361,437
Özel Sevgi Tıp Merkezi,34,TRUE,14,41.181787,28.740872,423
Nezih Sağlık Kabini,34,TRUE,18,41.0089,28.667168,439
Levent Optik,34,TRUE,5,41.08,29.006893,445
Es Optik,34,TRUE,5,41.103172,28.864243,454
Rota Optik,34,TRUE,5,41.093621,29.09091,432
Büyük Optik,34,TRUE,5,41.02422,29.084781,458
Aslan Optik,34,TRUE,5,41.03358,28.773355,447
Şam Optik,34,TRUE,5,41.018745,28.946328,441
İkbal Optik,34,TRUE,5,41.023828,29.088675,458
Kayatur Optik,34,TRUE,5,41.017185,29.100856,458
Zennur Optik,34,TRUE,5,41.106209,28.860729,454
Pelin Optik,34,TRUE,5,41.014243,28.864231,443
Bizim Optik,34,TRUE,5,41.003864,29.093182,424
Diker Optik,34,TRUE,5,40.98526,29.066938,444
İnci Optik,34,TRUE,5,40.915949,29.200743,446
Kartal Optik,34,TRUE,5,40.888493,29.184069,446
Koçak Optik,34,TRUE,5,41.030196,28.838901,426
Murat Optik,34,TRUE,5,41.025884,29.021626,459
Corners Optik Lens Merkezi,34,TRUE,5,41.086726,29.008204,431
Öz Optik,34,TRUE,5,41.092255,29.001632,445
Kozy Optik,34,TRUE,5,40.971518,29.098167,444
Şilem Optik,34,TRUE,5,41.172971,29.609311,455
Öz Zirve Optik 2,34,TRUE,5,41.107208,28.870794,454
Zeytinburnu Optik,34,TRUE,5,41.003733,28.903678,460
Gözüm Optik Lens,34,TRUE,5,40.989952,29.024529,444
Göz Grup Optik,34,TRUE,5,40.962956,29.075293,444
İrem Optik,34,TRUE,5,40.993083,28.790573,447
Uzm. Dr. Ersin Baltacı,34,TRUE,4,40.987401,29.021883,444
Uzm. Kl. Psk. Esra Bayraktar Süngü,34,TRUE,6,40.921473,29.136977,448
Özel Dentmarmara Ağız ve Diş Sağlığı Merkezi,34,TRUE,2,41.003177,28.635074,433
Özel Dent B & B Diş Kliniği,34,TRUE,2,41.056001,28.997201,456
Duy - Med İşitme Cihazları,34,TRUE,11,41.076257,28.249341,452
Uyar Src Psikoteknik,34,TRUE,10,41.076258,28.249334,452
Diş Hekimi Yüksel Ömeroğlu,34,TRUE,7,40.97967,28.870654,428
Özel Dentacenter Ağız ve Diş Sağlığı Polikliniği,34,TRUE,2,40.924787,29.302559,449
A +Plus Estetik Ağız Diş Sağlığı Polikliniği,34,TRUE,2,40.988547,28.780705,447
Medikal,34,TRUE,1,40.91582,29.169454,446
Dr. Kemal Kurtçu,34,TRUE,4,41.009561,28.899399,460
Op. Dr. Hakan Çoker,34,TRUE,4,41.0546,28.994578,456
Bilgiç Optik,34,TRUE,5,41.074679,28.247141,452
Diş Hekimi Tahsin Erdevir,34,TRUE,7,40.991479,29.031858,444
Nazar Optik,34,TRUE,5,40.92365,29.290488,449
Üye Medikal,34,TRUE,1,40.981532,28.720945,425
Duy - Sev İşitme Cihazları,34,TRUE,11,40.981505,28.720934,425
Momart,34,TRUE,14,41.05534,28.998599,456
Gözala Medikal,34,TRUE,1,41.012426,28.940198,441
Mine Diş Deposu,34,TRUE,1,41.012312,28.940199,441
Özel Gardenya Ağız ve Diş Sağlığı Merkezi,34,TRUE,2,41.006765,28.625345,433
Bağcılar Toplum Sağlığı Merkezi Bağcılar 1 Nolu Göçmen Sağlığı Birimi,34,TRUE,23,41.03545,28.859849,426
Canok Ortapedi Medikal,34,TRUE,1,40.969384,29.258529,453
Psk. Dilan Alişiroğlu,34,TRUE,6,40.983941,29.106774,424
Psk. Yağmur Yılmaz,34,TRUE,6,41.094335,29.087368,432
Optichouse,34,TRUE,5,41.181839,28.889388,440
Saran Optik,34,TRUE,5,40.867853,29.296132,449
En-Gaz,34,TRUE,1,41.012343,28.940165,441
Işık Medikal,34,TRUE,1,41.012177,28.940379,441
Tenty Medikal,34,TRUE,1,41.012257,28.940351,441
Ören Medikal,34,TRUE,1,41.012339,28.940258,441
Yade Medikal,34,TRUE,1,41.012196,28.940347,441
Odak İşitme Cihazları,34,TRUE,11,41.015246,28.932719,441
Salturhan Sarıgül Dişçi,34,TRUE,7,40.977874,28.874961,428
Karadeniz Medikal,34,TRUE,1,41.012179,28.940533,441
Aslan Medikal,34,TRUE,1,41.01227,28.940343,441
Diş Hekimi Cansev Gürbüz Yılmaz,34,TRUE,7,41.01651,28.930201,441
Diş Hekimi Sibel Hocaoğlu,34,TRUE,7,41.024861,29.098447,458
Akademi Gastroenteroloji Merkezi,34,TRUE,19,41.016198,28.942302,441
Karagül Medikal,34,TRUE,1,41.136612,28.465219,436
Ruhsaar Alternatif Terapi Merkezi,34,TRUE,19,41.070297,29.002863,456
Fzt. Muhammet Talha Bağdat,34,TRUE,4,41.081038,29.044157,431
Özel North Clinicks Tıp Merkezi,34,TRUE,14,41.146103,29.087358,432
Özel Maltepe Aktif Psikoteknik,34,TRUE,10,40.925231,29.130699,448
Estetisyen Op. Dr. Mustafa Karaca,34,TRUE,4,40.968125,29.065197,444
Özel İlknur Sağlık Kabini,34,TRUE,18,40.988487,28.707152,425
Beykoz Mahmut Şevket Paşa Sağlık Evi,34,TRUE,23,41.151088,29.18796,432
Op. Dr. Ayten Olgun,34,TRUE,4,41.054231,28.995266,456
Dr. Aşkın Keriş,34,TRUE,4,41.051217,28.994382,456
Diş Hekimi Nilgün Özşahin,34,TRUE,7,41.004365,28.889769,443
Özel Vital Hospital Hastanesi,34,TRUE,17,41.007199,28.86968,427
Diş Hekimi Dr. Serpil Uygun İpek,34,TRUE,7,40.989681,28.781492,447
Diş Hekimi Sultan Adıgüzel,34,TRUE,7,41.166815,29.057008,451
Diyetisyen Helin Şen,34,TRUE,8,40.991315,28.668647,433
Mannas Diş Deposu,34,TRUE,1,41.012951,28.939612,441
Prof. Dr. Fatih Güçer,34,TRUE,4,40.984908,29.109018,424
Akdeniz Psikiyatri,34,TRUE,6,41.017332,28.943606,441
Kadıköy Psikoteknik Değerlendirme Merkezi,34,TRUE,10,40.993357,29.029614,444
Uzm. Dr. Fatma Zehra Ateş,34,TRUE,4,41.05245,28.96027,434
Dr. Dt. Erkoç Dumanlı,34,TRUE,7,41.06546,29.007819,431
Uzm. Kl. Psk. Simge Bölükbaşı,34,TRUE,6,41.064694,28.690014,429
Fatih Sultan Mehmet Eğitim ve Araştırma Hastanesi Diyabet Merkezi,34,TRUE,24,41.016858,29.024212,459
Anadolu Tıp Merkezi,34,TRUE,14,40.878466,29.235391,449
Murat Optik,34,TRUE,5,41.043536,29.005351,431
Özel Umut Ağız ve Diş Sağlığı Merkezi,34,TRUE,2,40.942361,29.148769,448
Prof. Dr. Nejat Güney,34,TRUE,4,41.054793,28.999944,431
Özel Cebeci Diş Ağız ve Diş Sağlığı Polikliniği,34,TRUE,2,41.109496,28.868164,454
Dent İstanbul Koza Ağız ve Diş Sağlığı Polikliniği,34,TRUE,2,40.984107,29.089821,444
Asil İşitme Cihazları,34,TRUE,11,41.024121,29.085167,458
Psk. Melike Güray,34,TRUE,6,40.95645,29.088257,444
Dr. Murat Topoğlu,34,TRUE,4,41.063892,28.987311,456
Op.Dr.Medet Yılmaz,34,TRUE,4,40.878863,29.236498,449
Opr. Dr. Semra Polat,34,TRUE,4,41.019929,29.014588,459
Onedent - Diş Hekimi Havva Şen Karnap,34,TRUE,7,41.066873,28.99902,456
Toros Medikal,34,TRUE,1,41.034005,29.234604,437
Diş Hekimi İsmet Kaya,34,TRUE,7,41.02025,29.014352,459
Ufuk Çizgisi Psikolojik Danışmanlık Merkezi,34,TRUE,6,40.964633,29.088129,444
Doç. Dr. Habib Bostan,34,TRUE,4,40.992652,28.870242,428
Diş Hekimi Şebnem Yılbaş Akçakaya,34,TRUE,7,40.983302,29.063775,444
Op. Dr. Faruk Keremoğlu,34,TRUE,4,41.018314,28.946796,441
Temporal İşitme Cihazları,34,TRUE,11,41.058536,28.98724,456
Sgt Dental,34,TRUE,2,41.016915,29.096581,458
Çağrı İşitme Cihazları,34,TRUE,11,40.92529,29.130705,448
Prof. Dr. Semih Takka,34,TRUE,4,40.980404,29.041798,444
İç Hastalıkları Doç. Dr. Yusuf Aydın,34,TRUE,4,40.881002,29.230547,449
Diş Hekimi Taner Gül,34,TRUE,7,40.876847,29.234471,449
Dr. İsmail Ersin Vural,34,TRUE,7,40.883108,29.235138,449
Op. Dr. Aykut Coşkun,34,TRUE,4,40.968634,29.065622,444
Çınar Optik,34,TRUE,5,41.020636,28.932283,441
Uzm. Kl. Psk. Çisem Uzun,34,TRUE,6,40.956379,29.088214,444
Diş Hekimi Muharrem İkbal Şahin,34,TRUE,7,40.982815,29.063749,444
Dr. Selma Çatlakoğlu Oral,34,TRUE,4,40.980366,29.041807,444
Op.Dr. Hüseyin Köseoğlu,34,TRUE,4,40.980124,29.074859,444
Dr. Onur Selçuk Ortodonti Uzmanı,34,TRUE,7,40.978429,28.872811,428
Diş Hekimi Mehmet Tansel Oral,34,TRUE,7,40.954358,29.100933,448
Dr. İpek Salıcı,34,TRUE,7,40.994416,28.845517,427
Fzt. Bilge Bilgiç,34,TRUE,4,40.980725,29.108018,424
Bioenerji Bioom,34,TRUE,19,40.977384,29.047048,444
Diş Hekimi H. Uğur Filik,34,TRUE,7,40.970198,29.112264,424
Op. Dr. Korkut Arslan,34,TRUE,4,41.050972,28.990244,456
Saydam Tanı Laboratuvarları,34,TRUE,26,41.00208,29.14851,458
Diş Hekimi Serdal Kartal,34,TRUE,7,40.981332,28.874813,428
Diş Hekimi M.Sıddık Akşit,34,TRUE,7,40.972683,29.082363,444
Diş Hekimi Osman Öktem Aktürk,34,TRUE,7,40.982712,29.063718,444
Ecem Optik,34,TRUE,5,40.878772,29.261748,449
Diş Hekimi Murat Papak,34,TRUE,7,41.058102,28.912626,442
Gen Klinik,34,TRUE,26,41.054518,28.986782,456
Jinekolog Operatör Dr. Sema Etiz Sayharman,34,TRUE,4,41.024964,29.101605,458
Jin. Op. Dr. Ürküş Camcioğlu,34,TRUE,4,41.0985,28.86271,454
Uzman Psikolog Gülay Altunbaş,34,TRUE,6,40.902351,29.16619,446
Klinik Akademi Ağıız ve Diş Sağlığı Polikliniği,34,TRUE,2,40.914855,29.199922,446
Özel Dentapol Ağız ve Diş Sağlığı Polikliniği,34,TRUE,2,40.826022,29.309674,457
Diş Hekimi Çağatay ve Yasemin Sözer,34,TRUE,7,41.011468,28.866769,443
Özel Vizyon Ağız ve Diş Sağlığı Merkezi,34,TRUE,2,41.024108,29.087459,458
Özel Alldent Ağız ve Diş Sağlığı Merkezi,34,TRUE,2,41.005955,28.871049,427
Özel Denttiz Ağız ve Diş Sağlığı Polikliniği,34,TRUE,2,40.966731,29.106303,424
Kadıköy Belediyesi Çocuk Ağız ve Diş Sağlığı Polikliniği,34,TRUE,16,40.984359,29.055307,444
Özel Batıdental Ağız ve Diş Sağlığı Merkezi,34,TRUE,2,40.974501,29.0979,444
Hospitadent Ağız ve Diş Sağlığı Merkezi,34,TRUE,2,41.0449,28.830701,426
Clinic Plus Ağız ve Diş Sağlığı Polikliniği,34,TRUE,2,40.969539,29.084339,444
İstanbul Yeditepe Üniversitesi Sağlık Hizmetleri Eğitim Araştırma ve Uygulama Merkezi,34,TRUE,24,40.968844,29.103471,424
Klinik İstanbul Ağız ve Diş Sağlığı Merkezi,34,TRUE,2,41.066943,29.001476,456
Özel Ori Dent Ağız ve Diş Sağlığı Polikliniği,34,TRUE,2,40.984821,29.14334,424
Platinum Ağız ve Diş Sağlığı Merkezi,34,TRUE,2,41.0112,28.850254,427
Çocuk Sağlığı ve Hastalıkları Polikliniği,34,TRUE,3,40.984344,29.055215,444
Ağız ve Diş Sağlığı Polikliniği,34,TRUE,2,40.877302,29.231895,449
Özel Trenddent Ağız ve Diş Sağlığı Ortadonti Polikliniği,34,TRUE,2,40.971057,29.249877,453
Uzm.Dr.Kıpçak Tuncel Çocuk Sağlığı ve Hastalıkları Uzmanı,34,TRUE,4,40.997232,28.903576,460
Mimar Sinan Ağız ve Diş Sağlığı Polikliniği,34,TRUE,2,41.0237,29.0162,459
Deri ve Zührevi Hastalıkları Uzmanı Dr. Eda Kumbasar,34,TRUE,4,40.984264,28.872687,428
Pendik İşitme Cihazları Satış ve Uygulama Merkezi,34,TRUE,11,40.889567,29.181178,446
Evlilik Terapisi ve Enstitüsü,34,TRUE,6,40.996332,28.870612,428
Özel 2M Ağız ve Diş Sağlığı Polikliniği,34,TRUE,2,40.941394,29.115082,448
Özel Altın Gülüşler Ağız ve Diş Sağlığı Merkezi,34,TRUE,2,41.008614,28.625515,433
Dentalize Ağız ve Diş Sağlığı Polikliniği,34,TRUE,2,41.009224,29.051036,459
Özel Sefadent Ağız ve Diş Sağlığı Polikliniği,34,TRUE,2,41.002214,28.788022,447
Özel Dent Design Ağız ve Diş Sağlığı Polikliniği,34,TRUE,2,41.059414,28.986976,456
Özel My Dentist Ağız ve Diş Sağlığı Polikliniği,34,TRUE,2,40.995819,28.869638,428
Benlik Psikolloji ve Danışmanlık Merkezi,34,TRUE,6,40.97442,29.075326,444
Özel Dental Plus Ağız ve Diş Sağlığı Polikliniği,34,TRUE,2,40.990813,28.870332,428
Şişli Özel Sanita Ağız ve Diş Sağlığı Polikliniği,34,TRUE,2,41.0651,28.9789,456
Yaşar Baytak Ağız ve Diş Polikliniği,34,TRUE,2,40.983726,29.059264,444
İkra Medikal ve Sağlık Ürünleri,34,TRUE,1,40.985156,29.27523,453
Selin Arslan Yalçın Beslenme ve Diyet Danışmanlığı,34,TRUE,8,40.923378,29.130855,448
Özel Loyadent Ağız ve Diş Sağlığı Polikliniği,34,TRUE,2,41.056219,28.792636,447
Özel Dişhanee Ağız ve Diş Sağlığı Merkezi,34,TRUE,2,41.030388,28.828381,426
Özel Dişmer Ağız ve Diş Sağlığı Polikliniği,34,TRUE,2,40.880509,29.241834,449
Klinik Yazıcıoğlu Ağız ve Diş Sağlığı Polikliniği,34,TRUE,2,40.877771,29.233468,449
Özel Kaynarca Ağız ve Diş Sağlığı Polikliniği,34,TRUE,2,40.876504,29.259684,449
Özel Yağmurdent Ağız ve Diş Sağlığı Merkezi,34,TRUE,2,40.9919,29.040201,444
Özel Metro Diş Ağız ve Diş Sağlığı Polikliniği,34,TRUE,2,40.9996,28.8422,427
Lale Diş Ağız ve Diş Sağlığı Polikliniği,34,TRUE,2,41.053997,29.075262,459
Üsküdar Ahmet Yüksel Özemre Ağız ve Diş Sağlığı Merkezi,34,TRUE,16,41.052397,29.068349,459
Özel Avrupa Ağız ve Diş Sağlığı Polikliniği,34,TRUE,2,41.00707,28.796055,447
Aras Bildent Ağız ve Diş Sağlığı Polikliniği,34,TRUE,2,40.9929,28.7853,447
Bebek Bakım ve Emzirme Kabini,34,TRUE,18,40.985764,29.230024,450
Özel Avcılar Ağız ve Diş Sağlığı,34,TRUE,2,40.976994,28.719043,425
Senar Çerçi Beslenme ve Diyet Danışmanlık,34,TRUE,8,41.025976,29.093221,458
Özel Medicine Ağız ve Diş Sağlığı Polikliniği,34,TRUE,2,41.0303,28.8389,426
Dent Ataşehir Ağız ve Diş Sağlığı Polikliniği,34,TRUE,2,40.992721,29.124502,424
D Diet Beslenme ve Diyet Danışmanlığı,34,TRUE,8,40.982883,29.065097,444
Özel Kemal Avrasya Ağız ve Diş Polikliniği,34,TRUE,2,41.038772,28.878721,438
Pasifik Ağız ve Diş Sağlığı,34,TRUE,2,41.158603,28.913494,440
Özel Şişli Hausdent Ağız ve Diş Sağlığı Merkezi,34,TRUE,2,41.046072,28.986455,456
Özel Avrupa Dental Ağız ve Diş Sağlığı Merkezi,34,TRUE,2,40.973483,28.729123,425
Özel Klasdent Ağız ve Diş Sağlığı Polikliniği,34,TRUE,2,41.0398,28.6458,439
Özel Ali Güneş Ağız ve Diş Sağlığı Polikliniği,34,TRUE,2,41.029994,29.182392,437
Özel Terma Ağız ve Diş Sağlığı Merkezi,34,TRUE,2,41.142317,28.461025,436
Megadent Ağız ve Diş Sağlığı Merkezi,34,TRUE,2,41.003295,28.902326,460
Özel Mutident Ağız ve Diş Sağlığı Polikliniği,34,TRUE,2,41.051314,28.996423,456
Özel Ümit Ağız ve Diş Sağlığı Polikliniği,34,TRUE,2,41.032512,28.863418,426
Özel İnci Ağız ve Diş Sağlığı Merkezi,34,TRUE,2,41.107032,28.803483,429
Özel Evren Diş Ağız ve Diş Sağlığı Polikliniği,34,TRUE,2,41.031044,28.829585,426
Özel Liva Dent Ağız ve Diş Sağlığı Polikliniği,34,TRUE,2,41.078457,29.003353,445
Ultradent Ağız ve Diş Sağlığı Polikliniği,34,TRUE,2,41.011457,29.243903,450
Ortoonti Uzmanı Dr. Simge Diren Esener,34,TRUE,4,40.973301,29.055784,444
Özel Örnek Ağız ve Diş Sağlığı Merkezi,34,TRUE,2,41.055534,28.955886,445
Özel Dental 32 Ağız ve Diş Sağlığı Merkezi,34,TRUE,2,41.009952,28.652901,433
Özel Klinik Acıbadem Ağız ve Diş Sağlığı Polikliniği,34,TRUE,2,41.013713,29.055104,459
Klinik Cadde Ağız ve Diş Sağlığı Polikliniği,34,TRUE,2,41.023771,29.096846,458
Uzman Akademi Ağız ve Diş Sağlığı,34,TRUE,2,41.005079,28.833306,427
Turkuaz Ağız ve Diş Sağlığı Merkezi,34,TRUE,2,40.987032,29.028159,444
Akva Ağız ve Diş Sağlığı Polikliniği,34,TRUE,2,41.00759,28.661243,433
İkon Dil ve Konuşma Bozuklukları Merkezi,34,TRUE,19,40.995701,29.080101,424
Özel Sarıyer Tıp Merkezi,34,TRUE,14,41.168855,29.057072,451
Özel Bayramoğlu Ağız ve Diş Sağlığı Polikliniği,34,TRUE,2,41.021815,29.115305,458
Özel Happydent Ağız ve Diş Sağlığı Polikliniği,34,TRUE,2,41.008956,29.113253,458
Özel Newdent Ağız ve Diş Sağlığı Polikliniği,34,TRUE,2,41.009366,28.778811,447
Özel Prodens Ağız ve Diş Sağlığı Polikliniği,34,TRUE,2,41.006808,28.62265,435
Özel Primediş Ağız ve Diş Sağlığı Polikliniği,34,TRUE,2,40.99542,28.875011,428
Özel Dent Ağız ve Diş Sağlığı Polikliniği,34,TRUE,2,41.016234,28.645218,439
Özel Alpi Diş Pendik Ağız ve Diş Sağlığı Polikliniği,34,TRUE,2,40.880893,29.230062,449
Özel Dentestik Ağız ve Diş Sağlığı Polikliniği,34,TRUE,2,40.973341,29.062301,444
Özel Dentavega Ağız ve Diş Sağlığı Polikliniği,34,TRUE,2,40.983533,29.062339,444
Özel Dentgroup Ağız ve Diş Sağlığı Polikliniği,34,TRUE,2,40.980756,29.073957,444
Özel Öğüt İstanbul Ağız ve Diş Sağlığı Merkezi,34,TRUE,2,40.954504,29.100424,448
Özel Triodent Ağız ve Diş Sağlığı Polikliniği,34,TRUE,2,40.879356,29.230007,449
Özel Fındıklı Çınar Ağız ve Diş Sağlığı Polikliniği,34,TRUE,2,40.969017,29.139751,448
Özel Panaroma Ağız ve Diş Sağlığı Merkezi,34,TRUE,2,41.041215,28.950372,434
Özel Yüceler Ağız ve Diş Sağlkığı Merkezi,34,TRUE,2,41.022466,28.583854,435
Özel İstanbul Ortadonti Ağız ve Diş Sağlığı Merkezi,34,TRUE,2,41.003005,28.629488,433
Özel Halil Uyar Ağız ve Diş Polikliniği,34,TRUE,2,41.077228,28.947367,440
Özel Ersa Ağız ve Diş Sağlığı Merkezi,34,TRUE,2,41.005171,28.620943,435
Özel Ayazma Ağız ve Diş Sağlığı Merkezi,34,TRUE,2,41.032222,28.878193,438
Özel Mimaroba Sistem Ağız ve Diş Sağlığı Polikinliği,34,TRUE,2,41.006023,28.541411,435
Özel İstanbul Millet Ağız ve Diş Sağlığı Polikliniği,34,TRUE,2,41.01053,28.946309,441
Özel Dent A Dent Ağız ve Diş Sağlığı Merkezi,34,TRUE,2,40.983392,28.86848,428
İstanbul Bezmialem Vakıf Üniversitesi Sağlık Uygulama ve Araştırma Merkezi,34,TRUE,21,41.018952,28.935714,441
Özel Resident Ağız ve Diş Sağlığı Polikliniği,34,TRUE,2,41.109145,28.802822,429
Dent Life Ağız ve Diş Sağlığı Polikliniği,34,TRUE,2,41.033682,28.65068,439
Özel White Clinic Ağız ve Diş Sağlığı Polikliniği,34,TRUE,2,40.974605,29.080786,444
Triodent Ağız ve Diş Sağlığı Polikliniği,34,TRUE,2,40.962243,29.091131,444
Hospitadent Ağız ve Diş Sağlığı Merkezi,34,TRUE,2,41.002142,29.142147,458
Ağız ve Diş Sağlığı Merkezi,34,TRUE,2,40.910936,29.289783,449
Erbay Ağız ve Diş Sağlığı Polikliniği,34,TRUE,2,41.184318,28.738007,423
Arfa Ağız ve Diş Sağlığı Polikliniği,34,TRUE,2,40.998952,28.867379,427
Karaca Ağız ve Diş Sağlığı,34,TRUE,2,41.040954,28.676593,439
Özel Vizyon Ağız ve Diş Sağlığı Polikliniği,34,TRUE,2,41.034807,28.966978,434
Özel Meltem Hastanesi ve Doğum Hastanesi,34,TRUE,17,41.010722,28.867209,443
Avicenna Ağız ve Diş Sağlığı Polikinliği,34,TRUE,2,41.040589,28.880817,438
Panorama Ağız ve Diş Sağlığı Polikliniği,34,TRUE,2,40.983552,28.868066,428
Haseki Eğitim ve Araştırma Hastanesi Fatih Semt Polikliniği,34,TRUE,22,41.02268,28.944566,441
İnovadent Ortodonti Ağız ve Diş Sağlığı Polikliniği,34,TRUE,2,40.987023,29.111625,424
Özel Akademident Ağız ve Diş Sağlığı Polikliniği,34,TRUE,2,41.021365,29.081405,459
Özel Esnan Ağız ve Diş Sağlığı Merkezi,34,TRUE,2,40.994261,28.62575,433
Özel Sönmez Ağız ve Diş Sağlığı Polikliniği,34,TRUE,2,41.015036,29.079051,459
Üç Fark Ağız ve Diş Polikliniği,34,TRUE,2,41.116071,29.09595,432
Özel Sardent Ağız ve Diş Sağlığı Polikliniği,34,TRUE,2,41.014626,28.933493,441
Özel Şifa Dent Clinic Ağız ve Diş Sağlığı Polikliniği,34,TRUE,2,40.889743,29.18058,446
Özel İnci İstanbul Ağız ve Diş Sağlığı Polikliniği,34,TRUE,2,40.889977,29.179922,446
Köşker Ağız ve Diş Sağlığı Polikliniği,34,TRUE,2,40.925813,29.131933,448
Özel Sentez Ağız ve Diş Sağlığı Polikliniği,34,TRUE,2,41.075085,28.246374,452
Diş Hekimi Emin Eraslan,34,TRUE,7,41.031381,28.833106,426
Özel Dent Four Ağız ve Diş Sağlığı Polikliniği,34,TRUE,2,41.061111,28.899869,430
Özel Sezgi Ağız ve Diş Sağlığı Polikliniği,34,TRUE,2,40.890378,29.183527,446
Ataşehir Ağız ve Diş Sağlığı Hastanesi,34,TRUE,16,40.9909,29.109186,424
Yetim Vakfı Psikososyal Destek Uygulama ve Araştırma Merkezi,34,TRUE,6,41.008157,28.947743,441
Özel Murat Karabıyık Agız ve Diş Sağlığı,34,TRUE,2,40.81989,29.299293,457
Parla Ortodonti Ağız ve Diş Sağlığı Polikliniği,34,TRUE,7,41.064594,28.993475,456
Diş Levent Ağız ve Diş Sağlığı Polikliniği,34,TRUE,2,41.089338,29.005642,445
Özel Dental Akademi Ağız ve Diş Sağlığı Merkezi,34,TRUE,2,40.986425,29.074538,444
Özel Can Yemenicioğlu Ağız ve Diş Sağlığı Polikliniği,34,TRUE,2,41.002749,29.081127,424
Özel Eşrefoğlu Ağız ve Diş Sağlığı Polikliniği,34,TRUE,2,40.989268,29.061628,444
Özel Dental Estetik Ağız ve Diş Sağlığı Polikinliği,34,TRUE,2,41.00532,28.690183,439
Dr. Betül Öztürk Güner Geleneksel ve Tamamlayıcı Tıp Doktoru,34,TRUE,4,41.023734,29.018218,459
Dr. Fikret Çelik,34,TRUE,4,40.967349,29.068193,444
Kaplıca ve Romatizma Poliklinikleri,34,TRUE,3,41.015868,28.932942,441
Özel Newdent Ağız ve Diş Sağlığı Merkezi,34,TRUE,2,40.989961,28.66879,433
Derviş Ali Hesna Ceylan Ağız ve Diş Sağlığı Merkezi,34,TRUE,2,40.9729,29.2738,453
Diş Hekimi Aydın Görgün,34,TRUE,7,41.021298,28.943565,441
Si - Ser İşitme Cihazları,34,TRUE,11,40.982426,28.721277,425
Meydan Optik,34,TRUE,5,41.015597,28.929638,441
İstanbul İşitme Cihazları,34,TRUE,11,41.059198,28.986898,456
İsdenbulağız ve Diş Sağlığı Polikliniği,34,TRUE,2,41.062037,28.988498,456
Medikal ve Ortopedi Ürünleri,34,TRUE,1,41.063197,28.976246,456
Özel Dent Metropol Ağız ve Diş Sağlığı Polikliniği,34,TRUE,2,40.970587,29.114171,424
Multidenta Ağız ve Diş Sağlığı Polikliniği,34,TRUE,2,41.009656,29.212422,450
Flor Ağız ve Diş Sağlığı Polikliniği,34,TRUE,2,41.066844,28.999255,456
Özel Tekdent Ağız ve Diş Sağlığı Merkezi,34,TRUE,2,40.978004,29.145123,424
Özel Dentopıa Ataşehir Ağız ve Diş Sağlığı Merkezi,34,TRUE,2,40.980688,29.104301,424
Özel Avrupa Diş Ağız ve Diş Sağlığı Polikliniği,34,TRUE,2,40.97422,28.715491,425
Özel Meriç Ağız ve Diş Sağlığı Polikliniği,34,TRUE,2,41.039281,28.86152,426
Özel Berrak Ağız ve Diş Sağlığı Polikliniği,34,TRUE,2,40.87884,29.269236,449
Özel Dent Aktif Ağız ve Diş Sağlığı Merkezi,34,TRUE,2,41.07382,28.885576,430
Bakırköy Özel Oralmed Ağız ve Diş Sağlığı Polikliniği,34,TRUE,2,40.97736,28.877812,428
Özel Dentipol Ağız ve Diş Sağlığı Polikliniği,34,TRUE,2,40.999296,28.70855,425
Özel Dentanice Ağız ve Diş Sağlığı Polikliniği,34,TRUE,2,41.005267,29.131739,458
Özel Haliçdent Ağız ve Diş Sağlığı Polikliniği,34,TRUE,2,41.076924,28.950259,440
Özel Central Dentaplus Ağız ve Diş Sağlığı Polikliniği,34,TRUE,2,41.009318,29.135651,458
Özel Dentafer Ağız ve Diş Sağlığı Polikliniği,34,TRUE,2,41.004623,29.124734,458
Alpat Diş Ağız ve Diş Sağlığı Polikliniği,34,TRUE,2,41.015742,28.663994,439
Ece Medikal,34,TRUE,1,41.012211,28.940373,441
Nefes Medikal,34,TRUE,1,41.01236,28.940195,441
İşitme Cihazları Satış ve Uygulama Merkezi,34,TRUE,11,41.024088,29.083637,458
Kadın Hastalıkları ve Doğum Kliniği,34,TRUE,3,40.979314,29.10942,424
Duru Ağız ve Diş Sağlığı Polikliniği,34,TRUE,2,41.030541,29.172912,437
Özel Harbiye Ağız ve Diş Sağlığı Polikliniği,34,TRUE,2,41.050236,28.987806,456
Diş Hekimi Ömer Demirkan,34,TRUE,7,41.012624,28.931489,441
Op. Dr. Ayşe Övül Erdoğan,34,TRUE,4,41.054452,28.999826,431
Özel Net Cerrahi ve Estetik Ağız ve Diş Sağlığı Merkezi,34,TRUE,2,41.005789,28.651869,433
Özel Natürel Ağız ve Diş Sağlığı Polikliniği,34,TRUE,2,41.020982,28.796813,447
Özel Akademi Lazer Ağız ve Diş Sağlığı Polikliniği,34,TRUE,2,40.971276,29.098908,444
Özel Implant ve Akademi Ağız ve Diş Sağlığı Polikliniği,34,TRUE,2,41.071687,28.980272,445
Başakşehir Devlet Hastanesi Ağız ve Diş Sağlığı Polikliniği,34,TRUE,16,41.107268,28.789764,429
Umut Optik,34,TRUE,5,40.981743,29.068035,444
Özel Silivri Kolan Hospital Hastanesi,34,TRUE,17,41.071991,28.258515,452
Clinic Beslenme ve Diyetetik,34,TRUE,8,41.01308,28.937081,441
Özel Erdent Ağız ve Diş Sağlığı Polikliniği,34,TRUE,2,40.99538,29.083195,424
Özel Doğa Ağız ve Diş Sağlığı Polikliniği,34,TRUE,2,41.010743,28.649457,433
Özel Dora Ağız ve Diş Sağlığı Merkezi,34,TRUE,2,41.0223,29.0357,459
Özel Kaledent Ağız ve Diş Sağlığı Merkezi,34,TRUE,2,41.003115,28.633428,433
Özel Dent10 Ağız ve Diş Sağlığı Polikliniği,34,TRUE,2,41.010939,29.037982,444
Özel Dentnice Ağız ve Diş Sağlığı Polikliniği,34,TRUE,2,40.981701,29.120101,424
Özel Fildişi Ağız ve Diş Sağlığı Polikliniği,34,TRUE,2,40.983179,28.868533,428
Büyükçemece - Ketem Kanser Erken Teşhis Travma ve Eğitim Merkezi,34,TRUE,12,41.020259,28.578686,435
Dr. Levent Topçu Kadın Hastalıkları ve Doğum Uzmanı,34,TRUE,4,41.062318,28.986377,456
Diş Hekimi Mehmet Ergün,34,TRUE,7,41.046295,28.945632,434
Diş Hekimi Ahmet Osman,34,TRUE,7,41.019024,28.940439,441
Özel Dişpark Ağız ve Diş Sağlığı Polikliniği,34,TRUE,2,41.015,29.075201,459
Dr. Hayrettin Kundur,34,TRUE,4,41.035113,28.984768,434
Kartal Özel Dentist Ağız ve Diş Sağlığı Polikliniği,34,TRUE,2,40.915307,29.202168,446
Op. Dr. Ahmet Varolan,34,TRUE,4,41.058285,28.989065,456
Keskingöz Optik,34,TRUE,5,40.990969,29.027206,444
Diş Hekimi Taner Doğu,34,TRUE,7,40.981275,29.090642,444
Özel Merter Dent Ağız ve Diş Sağlığı Polikliniği,34,TRUE,2,41.005375,28.889436,443
SBÜ İstanbul Haseki Eğitim ve Araştırma Hastanesi,34,TRUE,24,41.009273,28.945537,441
Ozan Optik,34,TRUE,5,41.015465,29.164059,458
Özel Livdent Fatih Ağız ve Diş Sağlığı Polikliniği,34,TRUE,2,41.017127,28.950643,441
Çene Hastalıkları ve Cerrahisi Prof. Dr. Osman Gümrü,34,TRUE,7,40.978359,28.872409,428
Dr. Terane Hüseynova Bayramzade,34,TRUE,4,40.945256,29.277228,453
Özel Sistem Göz Tıp Merkezi,34,TRUE,9,40.87849,29.230116,449
Eye Conection,34,TRUE,5,40.956439,29.088435,444
Dr. Ayışıl Kayalı,34,TRUE,4,41.034964,28.984861,434
Özel Meltem Ağız ve Diş Sağlığı Plikliniği,34,TRUE,2,41.01081,28.867495,443
Bezmiâlem Fototerapi Merkezi,34,TRUE,19,41.020874,28.933048,441
Dinç Optik,34,TRUE,5,40.995203,28.90235,460
Turan Ağız ve Diş Sağlığı Merkezi,34,TRUE,2,41.018319,29.191891,437
Diş Hekimi İsmail Hakkı Ateş,34,TRUE,7,40.935457,29.215099,446
Akasya İşitme Cihazları,34,TRUE,11,40.984214,29.057262,444
Zeki Medikal,34,TRUE,1,41.006593,28.939583,441
Dr. Dent Ağız ve Diş Sağlığı Polikliniği,34,TRUE,2,41.030608,28.680822,439
Üçgen Optik,34,TRUE,5,41.052795,28.875127,438
Deniz Optik 2,34,TRUE,5,41.077872,28.249125,452
Esas Group Medikal Dental,34,TRUE,1,41.014518,28.940117,441
Kalden Medikal,34,TRUE,1,41.012306,28.940123,441
Diş Hekimi Yılmaz Sezgin,34,TRUE,7,40.991474,29.031829,444
Arsel Medikal,34,TRUE,1,41.012328,28.94034,441
Karagül İşitme Cihazları,34,TRUE,11,41.012284,28.940196,441
Tuğrul Kuyucak Uzman Psikolog,34,TRUE,6,40.992803,29.028217,444
Op. Dr. Şule Kıray,34,TRUE,4,41.054104,28.995331,456
Dr. Savaş Altan,34,TRUE,4,40.964656,29.087846,444
Diş Hekimi Mustafa Erenel,34,TRUE,7,41.037731,28.964471,434
Özel İnci Ağız ve Diş Sağlığı Polikliniği,34,TRUE,2,41.09066,29.003721,445
Özel Alpi Ağız ve Diş Sağlığı Merkezi,34,TRUE,2,40.879407,29.257814,449
Özel Güldüren Ağız ve Diş Sağlığı Polikliniği,34,TRUE,2,41.051215,28.92765,440
Erenköy Ruh ve Sinir Hastalıkları Eğitim ve Araştırma Hastanesi Çekmeköy Semt Polikliniği ve Toplum Ruh Sağlığı Merkezi,34,TRUE,22,41.014386,29.192775,437
Özel Erdem Ağız ve Diş Sağlığı Polikliniği,34,TRUE,2,41.024901,29.0821,459
Akça Dent Ağız ve Diş Sağlığı Polikliniği,34,TRUE,2,41.020473,28.664619,439
Özel Dentpoint Ağız ve Diş Sağlığı Polikliniği,34,TRUE,2,40.986402,29.134206,424
E_ Optik,34,TRUE,5,40.890524,29.181537,446
Özel Esencan Hastanesi,34,TRUE,17,41.033227,28.676685,439
Özel Avcılar Hospital,34,TRUE,17,40.994835,28.709478,425
Diş Hekimi Nebahat Yaman Çelikkol,34,TRUE,7,40.991656,28.780353,447
Sunglass Hut,34,TRUE,5,40.961961,29.077749,444
SBÜ İstanbul Fatih Sultan Mehmet Eğitim ve Araştırma Hastanesi,34,TRUE,24,40.970799,29.104711,424
Psikiyatris Doç. Dr. Solmaz Taptık Türkcan,34,TRUE,4,40.985048,28.868605,428
Atasoy Ağız ve Diş Sağlığı Polikliniği,34,TRUE,2,41.002309,28.78715,447
Akay Optik,34,TRUE,5,40.849296,29.304875,457
Denta Fim Ağız ve Diş Sağlığı Merkezi,34,TRUE,2,41.007495,28.623927,433
Diş Hekimi Ömer Engin,34,TRUE,7,40.978888,29.073665,444
Avrupa İnci Ağız ve Diş Sağlığı Polikliniği,34,TRUE,2,41.086444,28.902079,442
Kaşıkçı Ağız ve Diş Sağlığı Merkezi,34,TRUE,2,40.969618,29.262332,453
Özen Dentan Ataköy Ağız ve Diş Sağlık Merkezi,34,TRUE,2,40.977901,28.853901,428
Diş Hekimi Ömer Haluk Elçioğlu,34,TRUE,7,41.019997,28.947404,441
Kuzey Optik,34,TRUE,5,41.04103,28.6774,439
Diş Hekimi Osman Uçar,34,TRUE,7,41.025567,29.017015,459
Diş Hekimi İffet Gümrü,34,TRUE,7,40.978382,28.872474,428
Dr. Günnur Önarslan,34,TRUE,4,40.969669,29.067975,444
Medikal Ortopedi,34,TRUE,1,41.006642,28.940472,441
Dyt. Bahar Aktan,34,TRUE,8,41.019915,29.034712,459
Ortonorm Ortodonti Ağız ve Diş Sağlığı Polikliniği - Şişli,34,TRUE,2,41.057274,28.985602,456
Diş Hekimi Burcu Yeşilcan,34,TRUE,7,40.962282,29.07402,444
Uzm. Dkt. Burak Eren Erarslan,34,TRUE,4,40.991897,29.126688,424
Uzm. Dr. Aylin Ayla Keriş,34,TRUE,4,41.050864,28.994245,456
Safir Dental,34,TRUE,7,41.00791,28.874189,443
Sanmed Medikal,34,TRUE,1,40.984162,29.164206,424
Prof. Dr. Nevin Kartal,34,TRUE,7,41.051587,28.991113,456
Diş Hekimi Ramazan Alp,34,TRUE,7,41.062462,28.891325,430
Diş Hekimi Fikri Genç,34,TRUE,7,41.020647,28.94225,441
Atasun,34,TRUE,5,40.989476,29.028958,444
Küçükyalı Optik,34,TRUE,5,40.947107,29.112952,448
Aksoy İşitme Cihazları,34,TRUE,11,41.075854,28.250683,452
Siemens İşitme Cihazları,34,TRUE,11,41.061935,28.988383,456
Kolay Optik,34,TRUE,5,41.136314,28.465823,436
Dilmer Terapi,34,TRUE,19,40.916677,29.145005,448
Dr. Gülcan Özer,34,TRUE,4,40.979683,29.041234,444
Psk. Fatma Nur Köksal,34,TRUE,6,41.022588,28.635723,439
Dr. Ferruh Aydın,34,TRUE,7,40.982688,28.872654,428
Düşünce Gücüyle Tedavi Merkezi,34,TRUE,19,40.991308,29.026182,444
Dent-İst Ağız ve Diş Sağlığı Polikliniği,34,TRUE,2,41.017122,28.943225,441
Diş Hekimi İbrahim Karahan,34,TRUE,7,41.025128,29.100611,458
Febe Dental,34,TRUE,15,41.060222,28.983393,456
Uzm. Dr. Zeynep Pınar,34,TRUE,4,41.055151,28.99866,456
Burç Optik,34,TRUE,5,40.879139,29.233149,449
Diş Hekimi Suat Tatar,34,TRUE,7,40.917174,29.196106,446
Can Medikal,34,TRUE,1,41.01221,28.940321,441
Diş Hekimi Barış Boz,34,TRUE,7,41.008776,29.213244,450
Uz.Dr. Semra Sezgin,34,TRUE,7,41.02222,28.857748,426
Atasun Optik,34,TRUE,5,41.080268,28.877504,442
Uzm. Dkt. Mürvet Eyüpoğlu,34,TRUE,4,41.072457,28.66358,429
Op. Dr. Fatma Gençtürk Özer,34,TRUE,4,41.01301,28.644004,433
Uzm. Kl. Psk. Selin Yılmaz,34,TRUE,6,40.995138,29.099664,424
Doç. Dr. Mehmet Reşit Asoğlu,34,TRUE,4,41.054544,28.998699,456
Diş Hekimi Emel Bayram,34,TRUE,7,41.009609,29.138934,458
Dr. Bekir Turan,34,TRUE,4,41.007339,28.971816,441
County Optik,34,TRUE,5,41.179329,28.886846,440
Op. Dr. Erbil Yağmur,34,TRUE,4,41.055232,28.998456,456
Ay Optik,34,TRUE,5,40.978423,28.876367,428
Diş Hekimi Ozan Haksever,34,TRUE,7,41.029029,29.080633,458
Golden Group Medikal,34,TRUE,1,41.023754,28.937477,441
Sunglass Hut,34,TRUE,5,41.063397,28.807203,429
A Optik,34,TRUE,5,41.077727,28.946866,440
Gözüm Optik,34,TRUE,5,41.02514,29.106209,458
Diş Hekimi Kutay Can Ergül,34,TRUE,7,40.935364,29.124428,448
Kumsal Optik,34,TRUE,5,41.069916,28.907622,442
Özel Surp Agop Hastanesi (Taksim Vakıf Ermeni),34,TRUE,17,41.041811,28.986435,456
Uzm. Dr. Selda Yıldırım,34,TRUE,4,41.034807,28.778828,447
Diş Hekimi Diler Nizam,34,TRUE,7,41.013775,28.939686,441
Aksoy Ağız ve Diş Sağlığı Polikliniği,34,TRUE,7,41.008942,28.86849,427
İç Hastalıklar Uzmanı Dr. İlknur Othanoğlu,34,TRUE,4,41.136873,28.464839,436
7 Dent Ağız ve Diş Sağlığı Polikliniği,34,TRUE,2,40.98033,29.112797,424
Özel As Polikliniği,34,TRUE,3,41.023912,29.08655,458
May Optik,34,TRUE,5,41.136296,28.4654,436
Duymer İşitme Cihazları,34,TRUE,11,40.923176,29.133569,448
Denta Form Diş Laboratuvarı,34,TRUE,15,41.061153,28.986541,456
Odyoton İşitme Cihazları,34,TRUE,11,40.970205,29.100767,444
Bulvar Diş,34,TRUE,2,40.99136,28.903889,460
Diş Hekimi Necmi Kurt,34,TRUE,7,40.922526,29.135141,448
Uzm. Dr. Arif Acar,34,TRUE,4,40.994852,28.879052,428
Uzm. Dr. Leyla Onay,34,TRUE,4,41.062567,28.986211,456
Uzm. Dr. Gamze Menteşoğlu,34,TRUE,4,41.031674,28.976684,434
Modatıp Medikal Ürünler,34,TRUE,1,40.993579,29.02524,444
Diş Hekimi Hakkı Bayraktar,34,TRUE,7,40.989481,29.03331,444
Op. Dr. Aytunç Yur,34,TRUE,4,41.0625,28.982779,456
Duymner İşitme Cihazları,34,TRUE,11,40.968418,29.107876,424
Gül Optik,34,TRUE,5,40.878971,29.231926,449
Hilal Özsoy,34,TRUE,7,41.142171,28.463065,436
Mustafa Rumelili Kadın Hastalıkları ve Doğum Uzmanı,34,TRUE,4,40.989269,29.029042,444
Op. Dr. Gürol Şirin,34,TRUE,4,40.922658,29.153483,448
Çözüm İşitme Cihazları,34,TRUE,11,40.99178,29.03234,444
Göz Grup,34,TRUE,5,41.064114,28.806464,429
Fotech Fiber Optik,34,TRUE,5,40.983828,29.164411,424
Dr. Arzu Atalan,34,TRUE,4,40.990044,29.105595,424
Diş Hekimi A. Turgay Palancıoğlu,34,TRUE,7,41.009567,28.937591,441
Uzm. Dr. Melis Mosavi,34,TRUE,4,41.012858,28.64394,433
Dr. Buğce Ebeoğlu Algan,34,TRUE,7,40.980096,29.112524,424
Uzm. Dr. Fahri Çelebi,34,TRUE,4,41.056169,28.997281,456
Doç. Dr. Fatih Irmak,34,TRUE,4,41.055372,28.998344,456
Elegance Optik,34,TRUE,5,41.030132,29.22539,437
Özel Dentcotal Ağız ve Diş Sağlığı Polikliniği,34,TRUE,2,40.936661,29.29019,449
Atasun Optik,34,TRUE,5,41.024797,29.106602,458
Op. Dr. Erkin Önsal,34,TRUE,4,41.054669,28.998841,456
Doğru Dental,34,TRUE,2,41.013664,28.940076,441
Op. Dr. Altan Yücetaş,34,TRUE,4,41.055024,28.998742,456
Serhad Optik,34,TRUE,5,40.978796,28.722014,425
Prof. Dr. Ufuk Nalbantoğlu,34,TRUE,4,41.054737,28.998475,456
Dr. Hanifi Şahin,34,TRUE,4,41.052699,28.987068,456
Assun Optik,34,TRUE,5,40.820853,29.308465,457
Dt. Gülsevin Yazıcı Dahiliye Uzmanı,34,TRUE,4,41.016889,28.946077,441
Sen Optik,34,TRUE,5,41.032571,28.681654,439
Optika Optik,34,TRUE,5,40.940802,29.118932,448
Özel Çevre Ağız ve Diş Sağlığı Polikliniği,34,TRUE,2,41.016079,29.161419,458
Dr. Nurten Çalışkan,34,TRUE,4,41.065563,29.007741,431
Maltepe Diş Adresim,34,TRUE,7,40.916754,29.144893,448
Diş Hekimi Füsun Kasapoğlu,34,TRUE,7,40.991307,29.026223,444
Küçükköy Optik,34,TRUE,5,41.07377,28.903878,442
Maran Medikal,34,TRUE,1,41.012259,28.940239,441
Dr. Kemal Binalioğlu,34,TRUE,7,40.999058,28.838366,427
Diyetisyen Cansu Kolukırık,34,TRUE,8,41.024732,29.084383,459
Op. Dr. Soner Doğanyılmaz,34,TRUE,4,40.979345,29.109351,424
Diş Hekimi Elif Akçay,34,TRUE,7,41.024792,29.086051,458
Op. Dr. Akın Banaz,34,TRUE,4,41.055756,28.998155,456
Op. Dr. Deniz Algün,34,TRUE,4,41.055647,28.99826,456
Çamlı Optik,34,TRUE,5,40.953242,29.100702,448
Diş Hekimi M. Mutlu Göksoy Taşcan,34,TRUE,7,41.014284,28.939987,441
May İşitme Cihazları,34,TRUE,11,41.029716,28.667865,439
Si-Ser İşitme Cihazları,34,TRUE,11,41.024343,29.085012,458
Özel Cezlan Ağız ve Diş Sağlığı Polikliniği,34,TRUE,2,41.021497,28.941726,441
Huzur Ortopedi Medikal,34,TRUE,1,41.059241,28.912124,442
Dr. Güneş Ertük Dermatoloji Uzmanı,34,TRUE,4,40.974206,29.05535,444
Diş Hekimi Reyhan Arıkan,34,TRUE,7,40.98566,29.048132,444
Doç. Dr. Muhammed Ayaz,34,TRUE,4,40.938703,29.134207,448
Prof. Dr. Cengiz Açıkel,34,TRUE,4,40.991322,29.103837,424
Derin Ses İşitme Cihazları,34,TRUE,11,40.915792,29.169945,446
Diş Hemkimi Erduran Boyuneğmez,34,TRUE,7,41.073417,28.249694,452
Dr. Öğr. Üyesi Vilda Barlas,34,TRUE,4,41.06322,28.686916,429
Saygılı Optik,34,TRUE,5,41.017377,29.077854,459
Ömer Uygun Diş Hekimi,34,TRUE,7,41.025343,29.090879,458
İstanbul Psikiyatri,34,TRUE,6,41.024398,29.085155,458
Diş Hekimi Umut Günay,34,TRUE,7,41.056059,28.955626,445
Diş Hekimi Hamide Sinkil,34,TRUE,7,41.018822,28.945605,441
Elçin Optik,34,TRUE,5,41.051546,28.983667,456
Dr. Dt. Seda Mete,34,TRUE,7,41.017912,29.079265,459
Diş Hekimi Meryem Kayataş Tanın,34,TRUE,7,40.986058,29.048646,444
Dr. Cengiz Arısan,34,TRUE,4,40.983491,29.039598,444
Özel Acıbadem Göktürk Tıp Merkezi,34,TRUE,17,41.179671,28.886051,440
Sanal Medikal,34,TRUE,1,40.991465,29.031872,444
Diş Hekimi Olcay Sorguç,34,TRUE,7,41.007785,29.240988,450
Ekoses İşitme Cihazları,34,TRUE,11,40.915759,29.169972,446
Uzm. Dr. Alpaslan Eryılmaz,34,TRUE,4,41.047845,28.995422,456
Kartal Özel Orto Diş Ağız ve Diş Sağlığı Polikliniği,34,TRUE,2,40.914779,29.203587,446
Özel Şehsuvar Psikoteknik Değerlendirme Merkezi,34,TRUE,10,41.023921,29.100443,458
Wellness Medical,34,TRUE,1,40.980757,28.722177,425
Uzm. Dr. Mustafa Kemal Özcan,34,TRUE,4,41.055168,28.998643,456
Seren Optik,34,TRUE,5,40.995277,28.606776,433
Dr. Mutlu Güngör,34,TRUE,4,41.06418,28.972567,456
Cankat Kadın Sağlığı Kliniği,34,TRUE,3,41.055251,28.998728,456
Dr. Dt. Volkan Güney,34,TRUE,7,40.935292,29.124452,448
Op. Dr. Özge Ergün,34,TRUE,4,41.054864,28.998461,456
Diş Hekimi Fatma Tüylüoğlu Bozkurt,34,TRUE,7,40.91079,29.168599,446
Diş Hekimi Zeliha Aydın,34,TRUE,7,41.024491,29.104029,458
Erdem Optik 2,34,TRUE,5,41.169832,29.054692,451
Op. Dr. Şükran Akalın Kadın Hastalıkları,34,TRUE,4,41.023768,29.086679,458
Psk. Ahmet Eren Çakır,34,TRUE,6,41.00994,28.652297,433
Özel Dent Ofis Ağız ve Diş Sağlığı Merkezi,34,TRUE,2,40.918149,29.165925,448
Diş Hekimi Koralp Güner,34,TRUE,7,40.963128,29.076452,444
Dünya Medikal Ortopedi Depo,34,TRUE,1,41.012268,28.940219,441
Dr. Malik Türkay Esin,34,TRUE,4,41.007177,28.971952,441
Enes Optik,34,TRUE,5,41.003606,29.093016,424
Doç. Dr. Ayşegül Küçük Ali,34,TRUE,4,40.935327,29.124396,448
Diş Hekimi Ali Furkan Metin,34,TRUE,7,41.0524,28.984187,456
Dr. Fahrettin Kabataş,34,TRUE,7,40.998622,28.834683,427
Uzm. Dr. Vahap Öney,34,TRUE,4,41.001284,28.870965,427
Renova Medikal,34,TRUE,1,41.0123,28.94022,441
Girişim Psikoteknik,34,TRUE,10,40.981808,28.727948,425
Arık Medikal,34,TRUE,1,40.915778,29.169416,446
Diş Hekimi İnci Ertürk,34,TRUE,7,41.03066,29.172804,437
Doç. Dr. Pelin Kaynak,34,TRUE,4,41.05542,28.998318,456
Gözüm Optik,34,TRUE,5,40.979734,28.722253,425
Anc İşitme Cihazları,34,TRUE,11,41.136278,28.465679,436
Aliadent Diş Sağlığı Polikliniği,34,TRUE,2,41.092527,29.004433,445
Özel İnci Çok Amaçlı Diş Protez Laboratuvarı,34,TRUE,15,41.024364,29.098786,458
Özel Bulut Sağlık Kabini,34,TRUE,18,41.00778,29.240986,450
Mt Ağız ve Diş Sağlığı Polikliniği,34,TRUE,2,41.024901,29.099595,458
Jinekolog Op.Dr. Serpil Altınay,34,TRUE,4,40.922358,29.134633,448
Pendik Eah Hematoloji Onkoloji Ek Hizmet Binası,34,TRUE,13,40.888269,29.262718,449
Op. Dr. N. Emre Turgut,34,TRUE,4,41.055262,28.998572,456
Dr. Mustafa Gerçek,34,TRUE,7,40.99884,28.83462,427
Dr. Kerem Baykal Dermatoloji Uzmanı,34,TRUE,4,40.974216,29.055374,444
Dr. Fiziz Kudunoğlu Zaybak,34,TRUE,7,41.002831,28.865453,427
Psk. Dan. Abdullah Keser,34,TRUE,6,41.024349,29.085176,458
Op. Dr. Ramazan Tarık Ünsal,34,TRUE,4,41.030334,28.827866,426
Onkoloji Polikliniği,34,TRUE,3,41.055187,28.998633,456
Med-Kal,34,TRUE,1,40.888228,29.262709,449
Doç. Dr. Süleyman Taş,34,TRUE,4,41.054926,28.998777,456
As Medikal,34,TRUE,1,41.019463,28.957949,441
Özel Safir Diş Labaratuvarı,34,TRUE,15,40.889265,29.18262,446
Özel Esteliv Estetik Polikliniği,34,TRUE,3,41.00993,28.653051,433
Öz Yakacık Psikoteknik,34,TRUE,10,40.917797,29.223896,446
Sbs Medikal Sağlık,34,TRUE,1,40.983773,29.163018,424
Op. Dr. Deniz Cankat,34,TRUE,4,41.055177,28.998502,456
Sağlık Medikal,34,TRUE,1,41.012258,28.940376,441
Oniks Optik,34,TRUE,5,41.063591,28.685316,429
Önce İnsan Psikolojik Danışmanlık,34,TRUE,6,41.06123,28.988505,456
Nish Optik,34,TRUE,5,41.0091,28.651688,433
Beykent Optik,34,TRUE,5,41.004621,28.628546,433
Özel Soğanlık Ağız ve Diş Sağlığı Polikliniği,34,TRUE,2,40.914492,29.203006,446
Psikoteknit Merkezi,34,TRUE,10,41.028025,28.6675,439
Prof. Dr. Ahmet Verimli,34,TRUE,4,41.028959,28.972253,434
Diş Hekimi Ufuk Tosun,34,TRUE,7,41.030603,29.172853,437
Psk. Ilke Erdaş,34,TRUE,6,40.922379,29.133909,448
Özel Dental Ağız ve Diş Sağlığı Polikliniği,34,TRUE,2,41.023802,29.083224,459
Jinekolog Dr. Ayşe Büyüköğüt,34,TRUE,4,41.013608,28.944351,441
Ayten Kalyoncu Psikiyatrist,34,TRUE,6,41.034826,28.984372,434
Dental Teknik Servis,34,TRUE,7,41.012249,28.937072,441
Diş Hekimi Ethem Şelef,34,TRUE,7,41.010754,28.945747,441
Op. Dr. Tuğba İpek Kutlay Kadın Doğum Uzmanı,34,TRUE,4,41.024368,29.085125,458
Gültekin Gülşen,34,TRUE,7,41.002764,28.865404,427
Dt. Gül Ertürk,34,TRUE,7,41.016282,29.075546,459
Reflex İşitme Cihazları,34,TRUE,11,41.011313,28.943101,441
Bilim İşitme Cihazları,34,TRUE,11,41.011508,28.942333,441
Haseki İşitme Cihazları,34,TRUE,11,41.011275,28.943357,441
Prof. Dr. Serhat Fındık,34,TRUE,4,40.991302,29.103659,424
Op.Dr. Hande Yağmur,34,TRUE,4,41.055205,28.998484,456
Uzm. Dr. Hakan Erkaya,34,TRUE,4,41.055254,28.998439,456
Akdeniz Şifa Ağız ve Diş Sağlığı Polikliniği,34,TRUE,2,41.017483,28.943864,441
Dnt Sağlık Hizmetleri,34,TRUE,1,41.012404,28.940172,441
Dr. Nedim Yıldız,34,TRUE,4,41.014061,28.935041,441
Optimum,34,TRUE,5,41.081566,28.203874,452
Nuri Optik,34,TRUE,5,41.024461,29.098746,458
Sefaköy Psikoteknik Değerlendirme Merkezi,34,TRUE,10,41.002364,28.799063,447
Diş Dünyası,34,TRUE,15,41.012589,28.937709,441
Dr. Filiz Ak,34,TRUE,4,41.060878,28.988028,456
Efe Optik,34,TRUE,5,41.006054,28.629403,433
Diş Hekimi Mukadder Çakır,34,TRUE,7,41.013347,28.939441,441
Diş Hekimi Necati Sayın,34,TRUE,7,41.010742,28.778151,447
Diş Hekimi Ahmet İlhan,34,TRUE,7,40.889203,29.184168,446
Diş Hekimi Kemal Bozkurt,34,TRUE,7,40.910806,29.168599,446
Diş Hekimi Kıvanç Cebesoy,34,TRUE,7,40.985649,29.048129,444
Diş Hekimi Doğan Demirer,34,TRUE,7,40.99142,29.026318,444
Diş Hekimi Sedat Yağmur,34,TRUE,7,40.989094,29.032815,444
Anadolu Psikoteknik Merkezi,34,TRUE,10,41.035655,28.679079,439
Özel Aslan Haliç Sağlik Kabini,34,TRUE,18,41.010397,28.946772,441
Op. Dr. Selim Muğrabi,34,TRUE,4,41.054792,28.998394,456
Diş Hekimi Orhan Ateş,34,TRUE,7,40.990933,29.029697,444
Dr. Gürkan Günce,34,TRUE,7,41.002772,28.865448,427
Özel Dişçim Ağız ve Diş Sağlığı Polikliniği,34,TRUE,2,41.024368,29.084896,458
Diyetisyen Başak Say,34,TRUE,8,40.918733,29.140929,448
Dt. Derya Dursun Diktaş,34,TRUE,7,41.001209,28.870863,427
Uzm. Dyt. Aslı İçingür,34,TRUE,8,40.987739,29.100633,424
Op. Dr. Attila Hacılar,34,TRUE,4,41.06181,28.989081,456
Vatan Optik,34,TRUE,5,41.051757,28.983831,456
Güçlü Tıp Merkezi,34,TRUE,14,41.108821,28.865781,454
Op. Dr. Nevra Topalismailoğlu,34,TRUE,4,41.060325,28.987822,456
Op. Dr. İlker Yassa,34,TRUE,4,41.054765,28.998922,456
As Medikal,34,TRUE,1,41.012321,28.940234,441
Odiomed,34,TRUE,1,41.061467,28.988411,456
Özel Akadental Ağız ve Diş Sağlığı Polikliniği,34,TRUE,2,41.016933,28.6464,439
Diş Hekimi Hicabi Kalabay,34,TRUE,7,40.987167,29.028132,444
Dr. Öğr. Üyesi Aziz Mehmet Gökbakan,34,TRUE,4,40.973458,29.055292,444
Diş Hekimi Cem Dündar,34,TRUE,7,40.973493,29.055304,444
Dr. Haluk Gürışık,34,TRUE,4,40.973522,29.055396,444
Kaya Optik,34,TRUE,5,41.050026,28.930132,440
Prof. Dr. Tufan Turcan,34,TRUE,4,40.974286,29.046374,444
Harbi Optik Kontakt Lens,34,TRUE,5,40.97832,28.874849,428
Uzm. Dr. Şafak Göktaş,34,TRUE,4,40.984781,29.038987,444
Güngör Diş Laboratuarı,34,TRUE,15,40.889158,29.184315,446
Dr. Dt. İlker Arslan,34,TRUE,7,40.964051,29.074879,444
Dr.Dt. Ahmet Pınar,34,TRUE,7,40.964027,29.07493,444
Barış Diş Ağız ve Diş Sağlığı Polikliniği,34,TRUE,2,41.074174,28.248401,452
Türker Medikal,34,TRUE,1,41.01228,28.940277,441
Özel İstanbul Çocuk Nöroloji Merkezi,34,TRUE,14,41.014661,28.933816,441
Diş Hekimi Gül Ozkaylar,34,TRUE,7,41.035384,28.983545,434
Beylikdüzü Devlet Hastanesi,34,TRUE,13,41.014838,28.62517,435
Dr. Akif Alkan,34,TRUE,4,40.988356,29.028955,444
Diş Hekimi İrfan Yazıcı,34,TRUE,7,40.988712,29.028929,444
Diş Hekimi Cenap Koşu,34,TRUE,7,40.974263,29.046594,444
Şişli Teşhis Merkezi,34,TRUE,26,41.06082,28.988115,456
Op. Dr. Murat Ataç,34,TRUE,4,41.055276,28.998558,456
Diş Hekimi Ayşegül Özkan Özdemir,34,TRUE,7,41.073432,28.249672,452
Ortodenti Uzmanı Dr. Kuntay Şengün,34,TRUE,7,40.998812,28.834649,427
Prof. Dr. Cengiz Şen,34,TRUE,4,41.060943,28.98804,456
Diş Hekimi Dr. E. Adil Kabaoğlu,34,TRUE,7,41.025077,29.10075,458
Dr. Ayşe Ümit Cinalioğlu,34,TRUE,4,41.065668,29.007685,431
Life Optik,34,TRUE,5,41.005863,28.661383,433
Özel Aliadent Ağız ve Diş Sağlığı Polikliniği,34,TRUE,2,40.968267,29.266092,453
Özel Mecidiye Ağız ve Diş Sağlığı Merkezi,34,TRUE,2,41.066177,28.996481,456
Özel Modern Kliniği Ağız ve Diş Sağlığı Polikliniği,34,TRUE,2,40.978834,28.727356,425
Öze Bağcılar Beyaz Işık Ağız ve Diş Sağlığı Polikliniği,34,TRUE,2,41.031146,28.855902,426
Op. Dr. Emel Yurdakul Sıkar,34,TRUE,4,40.918097,29.165962,448
